store_key	storename	address	telno	region_name	province_name	city_muni_name	latitude	longitude
2	BF Homes	Pres. Avenue cor. Aguirre St., BF Homes, Paranaque	8425445	NCR - National Capital Region	NCR, FOURTH DISTRICT	CITY OF PARA?AQUE	14.4486	121.03
3	Libertad	Libertad St. cor. Harrison St. Pasay City	7998456	NCR - National Capital Region	NCR, FOURTH DISTRICT	PASAY CITY	14.5462	120.994
4	Naghatan	Nagtahan cor. J.P.  Laurel, Sta. Mesa Mla.	7150963	NCR - National Capital Region	NCR, CITY OF MANILA, FIRST DISTRICT	SAMPALOC	14.6004	120.999
5	U.N. Avenue	United Nation Ave., Ermita Manila	5218746	NCR - National Capital Region	NCR, CITY OF MANILA, FIRST DISTRICT	ERMITA	14.5828	120.986
7	Quiapo	Beside Quiapo Church Quezon Blvd. Manila	7336051	NCR - National Capital Region	NCR, CITY OF MANILA, FIRST DISTRICT	QUIAPO	14.599	120.984
8	Faura	Adriatico St. cor. P. Faura Ermita Manila	5257595	NCR - National Capital Region	NCR, CITY OF MANILA, FIRST DISTRICT	ERMITA	14.5776	120.982
10	Munoz	Roosevelt Ave. Nr. Cor. EDSA, Quezon City	3737577	NCR - National Capital Region	NCR, SECOND DISTRICT	QUEZON CITY	14.6571	121.019
11	Baclaran 1	Airport Quirino Ave., Baclaran Paranque	8527152	NCR - National Capital Region	NCR, FOURTH DISTRICT	CITY OF PARA?AQUE	14.5273	120.997
12	Roces	A. Roces Cor. Quezon Ave., Quezon City	2638473	NCR - National Capital Region	NCR, SECOND DISTRICT	QUEZON CITY	14.6332	121.02
17	Buendia	Buendia Ave. Nr Cor Taft Ave. Pasay City	5512408	NCR - National Capital Region	NCR, FOURTH DISTRICT	PASAY CITY	14.554	120.998
20	Boni	Boni Ave. Cor. EDSA, Mandaluyong City	5313156	NCR - National Capital Region	NCR, SECOND DISTRICT	CITY OF MANDALUYONG	14.5728	121.047
22	Retiro	Retiro St. Cor. Dimasalang St., Sampaloc Mla.	7426480	NCR - National Capital Region	NCR, CITY OF MANILA, FIRST DISTRICT	SAMPALOC	14.6241	120.989
24	Paco 1	Pedro Gil St. Cor. Paz St. Paco Manila	5638811	NCR - National Capital Region	NCR, CITY OF MANILA, FIRST DISTRICT	PACO	14.5786	120.995
30	Burgos	Libertad St. Cor.  Burgos St., Pasay City	8332508	NCR - National Capital Region	NCR, FOURTH DISTRICT	PASAY CITY	14.5481	121.001
31	Barangka	Boni Ave. Cor. Barranca Drive, Mandaluyong City	6544297	NCR - National Capital Region	NCR, SECOND DISTRICT	CITY OF MANDALUYONG	14.5757	121.041
33	Dapitan	Maceda St. Cor. Dapitan St., Sampaloc Mla.	7126042	NCR - National Capital Region	NCR, CITY OF MANILA, FIRST DISTRICT	SAMPALOC	14.6177	120.995
35	Pasig Church	Caruncho Ave. Cor. Sixto Antonio St., Pasig City	6412137	NCR - National Capital Region	NCR, SECOND DISTRICT	CITY OF PASIG	14.561	121.077
36	JRC-Shaw	ShawBlvd. Cor. Kalentong St., Mandaluyong	5316722	NCR - National Capital Region	NCR, SECOND DISTRICT	CITY OF MANDALUYONG	14.5934	121.027
37	Novaliches 1	Gen. Luis St. Cor. Austria St., Nova. Q.C.	9373516	NCR - National Capital Region	NCR, SECOND DISTRICT	QUEZON CITY	14.7219	121.039
38	PILAR	ALABANG ZAPOTE RD. COR. PILAR, LAS PI?AS	8003710	NCR - National Capital Region	NCR, FOURTH DISTRICT	CITY OF LAS PI?AS	14.4317	121.014
39	MCU	EDSA Cor. Asucion St. Caloocan City	3636279	NCR - National Capital Region	NCR, THIRD DISTRICT	CALOOCAN CITY	14.6574	120.988
40	Almeda	Almeda St. Cor., M. Concepcion St. Pasig City	6435147	NCR - National Capital Region	NCR, SECOND DISTRICT	CITY OF PASIG	14.5515	121.074
41	Marulas	McArthur Hway Cor. Pio Valenzuela, Val.	2916485	NCR - National Capital Region	NCR, THIRD DISTRICT	CITY OF VALENZUELA	14.6737	120.982
43	Malibay	EDSA Cor. C. Jose St., Malibay Pasay City	8537299	NCR - National Capital Region	NCR, FOURTH DISTRICT	PASAY CITY	14.5385	121.011
44	Bacoor	Talaba Rd. Cor. Aguinaldo H-Way Bacoor Cavite	9703946	REGION IV-A (CALABARZON)	CAVITE	BACOOR	14.462	120.963
45	Gagalangin	Juan Luna Cor. Pampanga St. Gagalangin, Mla.	2538025	NCR - National Capital Region	NCR, CITY OF MANILA, FIRST DISTRICT	TONDO I / II	14.629	120.974
46	Pandacan	Jesus Cor. Laborers  St., Pandacan Manila	5641954	NCR - National Capital Region	NCR, CITY OF MANILA, FIRST DISTRICT	PANDACAN	14.5927	121.004
47	Singalong	Singalong St. Cor. San Andres St. Manila	5369004	NCR - National Capital Region	NCR, CITY OF MANILA, FIRST DISTRICT	PACO	14.5715	120.995
54	Muntinlupa 1	Rizal Ave., Nr Cor. National H-Way Muntinlupa	8611725	NCR - National Capital Region	NCR, FOURTH DISTRICT	CITY OF MUNTINLUPA	14.3891	121.045
56	Evangelista	Pio Del Pilar Cor. Evangelista, Makati City	8175403	NCR - National Capital Region	NCR, FOURTH DISTRICT	CITY OF MAKATI	14.5509	121.01
57	Commonwealth	Tandang Sora Ave. Cor. Commonwealth Ave. Q.C	4550333	NCR - National Capital Region	NCR, SECOND DISTRICT	QUEZON CITY	14.6642	121.068
59	Revilla	EDSA Cor. C. Revilla St. Pasay City	8327252	NCR - National Capital Region	NCR, FOURTH DISTRICT	PASAY CITY	14.5373	121.001
60	Cainta Junction	A. Bonifacio St. Cor. Ortigas Extn. Cainta Rizal	6567253	REGION IV-A (CALABARZON)	RIZAL	CAINTA	14.5862	121.115
63	Guadalupe	EDSA Nr Cor R. Magsaysay Guadalupe Mkt. City	7286954	NCR - National Capital Region	NCR, FOURTH DISTRICT	CITY OF MAKATI	14.5652	121.045
64	Masinag	Marcos H-Way Cor. Sumulong H-Way, Antipolo	6451151	REGION IV-A (CALABARZON)	RIZAL	CITY OF ANTIPOLO	14.6257	121.125
65	Road 8	Road 8 Cor. Visayas Ave., Proj. 6 Q.C.	4540004	NCR - National Capital Region	NCR, SECOND DISTRICT	QUEZON CITY	14.6628	121.044
66	MH Del Pilar	A. Flores St. Cor. M.H. Del Pilar, Ermita Mla	4848117	NCR - National Capital Region	NCR, CITY OF MANILA, FIRST DISTRICT	ERMITA	14.5788	120.979
67	St. James	TSora Ave. Cor. Mindanao Ave Q.C.	4540050	NCR - National Capital Region	NCR, SECOND DISTRICT	QUEZON CITY	14.6771	121.032
68	Murphy	15TH Ave. Cor Liberty Ave. Murphy Cubao Q.C.	9138281	NCR - National Capital Region	NCR, SECOND DISTRICT	CITY OF PASIG	14.615	121.062
69	PCU	Pedro Gil Cor. Leon Guinto St. Malate Mla.	5361661	NCR - National Capital Region	NCR, CITY OF MANILA, FIRST DISTRICT	MALATE	14.5764	120.989
71	A Bonifacio	A. Bonifacio Cor Shaw Blvd. Mandaluyong City	5324307	NCR - National Capital Region	NCR, SECOND DISTRICT	CITY OF MANDALUYONG	14.5896	121.035
72	Calamba	National HiWay Cor. JP Rizal St. Calamba Laguna	5455694	REGION IV-A (CALABARZON)	LAGUNA	CITY OF CALAMBA	14.2055	121.156
74	Canaynay	Dr. A. Santos Avenue Cor Canaynay Ave. Pque.	8254254	NCR - National Capital Region	NCR, FOURTH DISTRICT	CITY OF PARA?AQUE	14.475	121.001
75	Antipolo Church	Oliveros St. Cor Masangkay, Antipolo Rizal	6508997	REGION IV-A (CALABARZON)	RIZAL	CITY OF ANTIPOLO	14.5878	121.175
76	Pasig Rotonda	Pasig Blvd. Cor Sixto Antonio, Pasig City	6410593	NCR - National Capital Region	NCR, SECOND DISTRICT	CITY OF PASIG	14.5661	121.076
78	Bruger	National Rd. Bruger St. Putatan Muntinlupa	8611724	NCR - National Capital Region	NCR, FOURTH DISTRICT	CITY OF MUNTINLUPA	14.3946	121.045
80	Marcelo	West Service Rd. Cor Marcelo Ave. Paranque	8210988	NCR - National Capital Region	NCR, FOURTH DISTRICT	CITY OF PARA?AQUE	14.4758	121.045
82	San Antonio	Sucat Rd. Cor San Antonio Ave., San Dionisio Pque	8254252	NCR - National Capital Region	NCR, FOURTH DISTRICT	CITY OF PARA?AQUE	14.465	121.02
85	FB Harrison	FB Harrison Near Cor Vito Cruz Mla.	5360704	NCR - National Capital Region	NCR, CITY OF MANILA, FIRST DISTRICT	MALATE	14.56	120.99
86	Tayuman	Tayuman Cor Rizal Ave. Sta. Cruz Mla.	7438453	NCR - National Capital Region	NCR, CITY OF MANILA, FIRST DISTRICT	SANTA CRUZ	14.6167	120.983
87	Imus	Aguinaldo H-Way Cor Tanzang Luma, Imus Cavite	5022550	REGION IV-A (CALABARZON)	CAVITE	IMUS	14.4618	120.942
88	Antipolo Junction	Circumferential Rd Cor M.L. Quezon, Antipolo	6507089	REGION IV-A (CALABARZON)	RIZAL	CITY OF ANTIPOLO	14.5809	121.176
90	Bangkal	Evangelista Cor. Alejandro St., Bangkal Mkt.	8890340	NCR - National Capital Region	NCR, FOURTH DISTRICT	CITY OF MAKATI	14.5396	121.012
91	San Pedro 1	National H-Way Cor Maharlika, San Pedro Laguna	8682229	REGION IV-A (CALABARZON)	LAGUNA	SAN PEDRO	14.3669	121.051
93	Meycauyan 2	Malhacan Rd. Cor MCArthur H-Way, Meycauyan	9352982	REGION III (Central Luzon)	BULACAN	CITY OF MEYCAUAYAN	14.7372	120.961
96	San Pedro 2	A. Mabini Cor Garcia St. San Pedro Laguna	8688296	REGION IV-A (CALABARZON)	LAGUNA	SAN PEDRO	14.3673	121.053
97	Cavite City	Cajigas Cor Burgos St., Cavite City	5043865	REGION IV-A (CALABARZON)	CAVITE	CAVITE CITY	14.4797	120.898
98	Ylaya	Ylaya Cor Lakandula St. Binondo Manila	2453422	NCR - National Capital Region	NCR, CITY OF MANILA, FIRST DISTRICT	BINONDO	14.6072	120.967
99	Dasmarinas 1	P. Campos Cor. Cantibuhan, Dasmarinas Cavite	9730025	REGION IV-A (CALABARZON)	CAVITE	DASMARI?AS	14.3267	120.936
100	Balibago	Natl H-Way Cor R. Lazaga, Balibago Sta Rosa	5342905	REGION IV-A (CALABARZON)	LAGUNA	CITY OF SANTA ROSA	14.2959	121.106
101	Blum 2	Blumentritt Cor Isagani St., Manila	7494290	NCR - National Capital Region	NCR, CITY OF MANILA, FIRST DISTRICT	BINONDO	14.625	120.987
102	Hermosa	J. Abad Santos Cor Hermosa St., Tondo Manila	2534061	NCR - National Capital Region	NCR, CITY OF MANILA, FIRST DISTRICT	TONDO I / II	14.632	120.98
103	Kabihasnan	Quirino Avenue Cor Kabihasnan San Dionisio Pque	8269318	NCR - National Capital Region	NCR, FOURTH DISTRICT	CITY OF PARA?AQUE	14.4921	120.988
104	Galas	Unang Hakbang Cor Luzon Ave. Galas Q.C.	7153280	NCR - National Capital Region	NCR, SECOND DISTRICT	QUEZON CITY	14.6122	121.009
105	Lower Bicutan	Gen Santos Cor ML Quezon, Lower  Bicutan Taguig	8374305	NCR - National Capital Region	NCR, FOURTH DISTRICT	TAGUIG CITY	14.4887	121.061
106	Tamarw Hills	MCArthur H-Way Cor Tamaraw Hills, Marulas Val.	2932630	NCR - National Capital Region	NCR, THIRD DISTRICT	CITY OF VALENZUELA	14.6787	120.98
107	Cabuyao	J.P. Rizal Cor Circumferential Ave. Cabuyao Laguna	8320117	REGION IV-A (CALABARZON)	LAGUNA	CABUYAO	14.2772	121.123
108	Chico	Anonas Cor Chico, Project 2, Q.C.	9289702	NCR - National Capital Region	NCR, SECOND DISTRICT	QUEZON CITY	14.6325	121.06
111	Molino 1	Molino Rd Cor Bahayang Pag-Asa Molino Bacoor	4773083	REGION IV-A (CALABARZON)	CAVITE	BACOOR	14.3981	120.978
112	San Pablo	Rizal Avenue Cor A. Flores, San Pablo City	5627858	REGION IV-A (CALABARZON)	LAGUNA	SAN PABLO CITY	14.0694	121.326
113	Tanay	Plaza Rizal cor. P. Burgos, Tanay, Rizal	6541070	REGION IV-A (CALABARZON)	RIZAL	TANAY	14.4975	121.285
114	Dasmarinas 2	Aguinaldo H-Way Cor Mangubat, Dasmarinas	468502667	REGION IV-A (CALABARZON)	CAVITE	DASMARI?AS	14.3266	120.94
115	Molino 2	Molino Rd., San Nicolas Bacoor	465723810	REGION IV-A (CALABARZON)	CAVITE	BACOOR	14.4262	120.975
116	Rosario-Salinas	Gen Trias Drive, Salinas Rosario Cavite	464380651	REGION IV-A (CALABARZON)	CAVITE	ROSARIO	14.4148	120.856
118	GMA	GMA Drive Cor Governors Drive, GMA Cavite	469724663	REGION IV-A (CALABARZON)	CAVITE	GEN. MARIANO ALVAREZ	14.2837	120.999
119	Binan 2	Natl H-Way Cor Malvar Rd. Binan Laguna	494111759	REGION IV-A (CALABARZON)	LAGUNA	BI?AN	14.3331	121.082
120	Balagtas	MCArthur HWay, Wawa Balagtas, Bulacan	449181123	REGION III (Central Luzon)	BULACAN	BALAGTAS (BIGAA)	14.8177	120.907
121	Pulang Lupa	Quirino Ave.  Cor Naga Rd. Pulang Lupa Las Pinas	8732765	NCR - National Capital Region	NCR, FOURTH DISTRICT	CITY OF LAS PI?AS	14.4732	120.977
122	BF Resort	Zapote Alabang Cor BF Resort Drive, Las Pinas	8744545	NCR - National Capital Region	NCR, FOURTH DISTRICT	CITY OF LAS PI?AS	14.4445	120.994
123	Parang	Del Pilar Cor M.L. Quezon St., Parang Marikina	3992167	NCR - National Capital Region	NCR, SECOND DISTRICT	CITY OF MARIKINA	14.6598	121.113
125	J.P. Ramoy	J.P. Ramoy Cor Quirino H-Way, Talipapa Novaliches	4539644	NCR - National Capital Region	NCR, SECOND DISTRICT	QUEZON CITY	14.6859	121.024
126	Cainta Church	A Bonifacio Avenue, Cainta Rizal	6550837	REGION IV-A (CALABARZON)	RIZAL	CAINTA	14.577	121.117
127	Tatlong Hari	Rizal Avenue Cor T. Hari, Sta Rosa Laguna	498373711	REGION IV-A (CALABARZON)	LAGUNA	CITY OF SANTA ROSA	14.3149	121.112
128	LOS BA?OS	NATIONAL ROAD, BATONG MALAKE, LOS BA?OS LAGUNA	495360153	REGION IV-A (CALABARZON)	LAGUNA	LOS BA?OS	14.1784	121.242
130	Binakayan	Tirona H-Way Cor Bisita St., Binakayan Cavite	464342610	REGION IV-A (CALABARZON)	CAVITE	KAWIT	14.4497	120.923
131	Lipa H-Way	National H-Way (Big Ben Comm. Complex) Lipa City	439811883	REGION IV-A (CALABARZON)	BATANGAS	LIPA CITY	13.9424	121.153
132	Trece Martirez	Governors Drive Cor Indang Tanza, Trece Martirez	464192934	REGION IV-A (CALABARZON)	CAVITE	TRECE MARTIRES CITY (Capital)	14.2821	120.869
133	Tagaytay	Tagaytay Rotonda, Tagaytay	468602667	REGION IV-A (CALABARZON)	CAVITE	TAGAYTAY CITY	14.1152	120.962
134	Molave	Molave Rd Cor Bayan-Bayanan Concepcion Mkna	9862412	NCR - National Capital Region	NCR, SECOND DISTRICT	CITY OF MARIKINA	14.651	121.112
135	Panapaan	Tirona HWay Nr Cor Aguinaldo HWay Bacoor	469707010	REGION IV-A (CALABARZON)	CAVITE	BACOOR	14.4456	120.952
136	Apalit	MC Arthur HWay Cor David St., Apalit Pamoanga	458790505	REGION III (Central Luzon)	PAMPANGA	APALIT	14.9503	120.759
137	San Pedro 3	Pacita Ave. Nr Cor Macaria Ave. San Pedro Laguna	8479192	REGION IV-A (CALABARZON)	LAGUNA	SAN PEDRO	14.3435	121.058
138	Lipa Proper	C.M. Recto Avenue, Lipa City	439810437	REGION IV-A (CALABARZON)	BATANGAS	LIPA CITY	13.9416	121.163
141	Camarin	Camarin Cor Susano  Rd., Caloocan	9629129	NCR - National Capital Region	NCR, THIRD DISTRICT	CALOOCAN CITY	14.756	121.044
142	Tanza	Sta Cruz Cor Agustin, Tanza Cavite	465052667	REGION IV-A (CALABARZON)	CAVITE	TANZA	14.4001	120.857
144	Aglipay	A.T. Reyes Cor. Boni Avenue, Aglipay Mandaluyong	5343557	NCR - National Capital Region	NCR, SECOND DISTRICT	CITY OF MANDALUYONG	14.5863	121.026
145	Naic	Nazareno Cor. Poblete St., NAIC Cavite	464120727	REGION IV-A (CALABARZON)	CAVITE	NAIC	14.3195	120.764
147	Shorthon	Road 20 Cor. Shorthom Proj 8, Q.C.	4531311	NCR - National Capital Region	NCR, SECOND DISTRICT	QUEZON CITY	14.6684	121.02
148	J.P. Rizal	Constancia St., Cor J.P. Rizal Avenue, Makati	8991225	NCR - National Capital Region	NCR, FOURTH DISTRICT	CITY OF MAKATI	14.5709	121.02
150	Zabarte	Quirino Cor Zabarte Rd. Novaliches	4170220	NCR - National Capital Region	NCR, SECOND DISTRICT	QUEZON CITY	14.7316	121.048
152	Dasma 3	Congressional Rd., Dbb, Dasmarinas	455402023	REGION IV-A (CALABARZON)	CAVITE	DASMARI?AS	14.3221	120.964
153	Pedro Gil Main	Pedro Gil Cor. Main St., Paco Manila	5616821	NCR - National Capital Region	NCR, CITY OF MANILA, FIRST DISTRICT	PACO	14.5787	121
154	Insular Burgos	P Burgos Cor. Gen Luna Makati City	8953440	NCR - National Capital Region	NCR, FOURTH DISTRICT	CITY OF MAKATI	14.5646	121.031
155	San Andres Onyx	A. Francisco Cor Onyx, San Andres Manila	5616819	NCR - National Capital Region	NCR, CITY OF MANILA, FIRST DISTRICT	PACO	14.5737	121.004
156	Guadalupe 2	Kalayaan, Guadalupe Nuevo, Makati	8823325	NCR - National Capital Region	NCR, FOURTH DISTRICT	CITY OF MAKATI	14.5591	121.046
158	N. Domingo	N Domingo Cor F. Blumentritt, San Juan	7241027	NCR - National Capital Region	NCR, SECOND DISTRICT	CITY OF SAN JUAN	14.6047	121.023
160	San Bartolome	P. Dela Cruz Near Corner Quirino H-Way, SB	9391045	NCR - National Capital Region	NCR, SECOND DISTRICT	QUEZON CITY	14.701	121.035
162	San Fernando	San Fernando Pampanga	459637574	REGION III (Central Luzon)	PAMPANGA	CITY OF SAN FERNANDO (Capital)	15.029	120.693
165	Superlines	EDSA Cor. Monte De Piedad St. Cubao Q.C.	4148267	NCR - National Capital Region	NCR, SECOND DISTRICT	QUEZON CITY	14.6246	121.048
166	Columbia	Grnd. Flr. Columbia Tower Mandaluyong City	7247800	NCR - National Capital Region	NCR, SECOND DISTRICT	CITY OF MANDALUYONG	14.5946	121.056
167	Jupiter	Makati Ave. Cor. Gil Puyat Ave. Makati City	8977445	NCR - National Capital Region	NCR, FOURTH DISTRICT	CITY OF MAKATI	14.5617	121.028
168	T.M. Kalaw	Kimme Bldg. T.M. Kalaw Cor. Mabini St. Ermita M.M.	4906068	NCR - National Capital Region	NCR, CITY OF MANILA, FIRST DISTRICT	ERMITA	14.581	120.98
172	West Avenue	West Ave. Corner Zamboange St. Q.C	2638476	NCR - National Capital Region	NCR, SECOND DISTRICT	QUEZON CITY	14.6383	121.026
175	MCU 2	Benin St., Cor. EDSA, Caloocan City	3301380	NCR - National Capital Region	NCR, THIRD DISTRICT	CALOOCAN CITY	14.6569	120.986
176	Farmers	Space 1&2,2nd Level,New Farmers Plaza,Cubao,Q.C.	4391319	NCR - National Capital Region	NCR, SECOND DISTRICT	QUEZON CITY	14.6201	121.051
180	Batangas City	P. Burgos St.,cor. Panganiban St., Batangas City	437230926	REGION IV-A (CALABARZON)	BATANGAS	BATANGAS CITY (Capital)	13.7559	121.059
184	Doroteo Jose	D. Jose St. cor. Rizal Ave., Sta. Cruz, Manila	7416551	NCR - National Capital Region	NCR, CITY OF MANILA, FIRST DISTRICT	SANTA CRUZ	14.6051	120.982
185	Global Plaza	Airport Rd. cor. Coastal Rd., Global Plaza Bldg.	8523733	NCR - National Capital Region	NCR, FOURTH DISTRICT	CITY OF PARA?AQUE	14.5172	120.994
187	Virra 1	Virra 1 Bldg., P. Burgos St., Makati City	8982240	NCR - National Capital Region	NCR, FOURTH DISTRICT	CITY OF MAKATI	14.5633	121.029
188	Panay Avenue	Quezon Avenue, corner EDSA, Quezon City	4130594	NCR - National Capital Region	NCR, SECOND DISTRICT	QUEZON CITY	14.6433	121.038
192	Turbina	Turbina	5456290	REGION IV-A (CALABARZON)	LAGUNA	CITY OF CALAMBA	14.1853	121.137
193	Bauan	Bauan Batangas	9801535	REGION IV-A (CALABARZON)	BATANGAS	BAUAN	13.7907	121.01
194	Angono	Angono Rizal	4511081	REGION IV-A (CALABARZON)	RIZAL	ANGONO	14.5236	121.153
195	RFM	RFM, Pasig	7475308	NCR - National Capital Region	NCR, SECOND DISTRICT	CITY OF PASIG	14.5711	121.052
196	Urdaneta	Brgy Polacion, Urdaneta City, Pangasinan	696048900	REGION I (Ilocos Region)	PANGASINAN	CITY OF URDANETA	15.9724	120.571
198	Matalino	Matalino Q.C.	4346097	NCR - National Capital Region	NCR, SECOND DISTRICT	QUEZON CITY	14.6446	121.05
199	Rizal Med	Pasig Blvd. cor F. Banaag, Pineda Pasig City	6721669	NCR - National Capital Region	NCR, SECOND DISTRICT	CITY OF PASIG	14.5636	121.065
200	Carmen	Mc Arthur Highway, Carmen Rosales, Pangasinan	755823488	REGION I (Ilocos Region)	PANGASINAN	ROSALES	15.8834	120.599
204	Precilla	Pasong Tamo Extension	8300272	NCR - National Capital Region	NCR, FOURTH DISTRICT	CITY OF MAKATI	14.5348	121.022
205	UE Recto	UE Claro M. Recto Avenue, Manila	7364934	NCR - National Capital Region	NCR, CITY OF MANILA, FIRST DISTRICT	SAMPALOC	14.6017	120.989
206	Zapote	Alabang Zapote Rd. cor. F. Santos, Las Pi?as City	8738861	NCR - National Capital Region	NCR, FOURTH DISTRICT	CITY OF LAS PI?AS	14.4637	120.969
208	Angeles	Sto. Rosario corner Sukdulan Street, Angeles City	425009600	REGION III (Central Luzon)	PAMPANGA	ANGELES CITY	15.1333	121.001
209	Dagupan	Arellano Street, Dagupan City	696055400	REGION I (Ilocos Region)	PANGASINAN	DAGUPAN CITY	16.0476	120.342
210	Session 2	GF B-105 Lopez Bldg., Session Rd., Baguio City	744465499	CAR - Cordillera Administrative Region	BENGUET	BAGUIO CITY	16.4131	120.597
211	Orosa	MY Orosa nr. cor., TM Kalaw, Ermita Manila	5275862	NCR - National Capital Region	NCR, CITY OF MANILA, FIRST DISTRICT	ERMITA	14.5816	120.981
212	Lemery	Ilustre Ave. cor. P. Burgos St., Lemery, Batangas	434090135	REGION IV-A (CALABARZON)	BATANGAS	LEMERY	13.8805	120.916
213	Parkview	Valero St., cor. Salcedo Village, Makati City	7506780	NCR - National Capital Region	NCR, FOURTH DISTRICT	CITY OF MAKATI	14.5585	121.022
214	San Pablo 2	Leonor St. cor. Maharlika Hi-way San Pablo Laguna	495621412	REGION IV-A (CALABARZON)	LAGUNA	SAN PABLO CITY	14.0643	121.323
215	Crame	Boni Serrano cor. 2nd Ave. Camp Crame, Q.C.	2345056	NCR - National Capital Region	NCR, SECOND DISTRICT	QUEZON CITY	14.6104	121.053
216	Bac 2	Quirino Ave. CR. Dimasalang, Baclaran, P'que	8319748	NCR - National Capital Region	NCR, FOURTH DISTRICT	CITY OF PARA?AQUE	14.5302	120.997
217	Nova 3	Quirino H-way cor. Sarmiento St., Novaliches City	2173320	NCR - National Capital Region	NCR, SECOND DISTRICT	QUEZON CITY	14.7194	121.04
218	Taytay2	Manila-East  Road, Taytay Rizal	9238554	REGION IV-A (CALABARZON)	RIZAL	TAYTAY	14.5591	121.136
219	P. Campa	Espana cor. P. Campa Sampaloc St., Manila	7367206	NCR - National Capital Region	NCR, CITY OF MANILA, FIRST DISTRICT	SAMPALOC	14.6055	120.989
220	LB Air	Sta. Rosa - Tagaytay road Sta. Rosa Laguna	498381152	REGION IV-A (CALABARZON)	LAGUNA	CITY OF SANTA ROSA	14.2638	121.074
221	Bac 3	Roxas Blvd., Baclaran, Paranaque	8530092	NCR - National Capital Region	NCR, FOURTH DISTRICT	CITY OF PARA?AQUE	14.5332	120.994
222	Calam 2	National H-way nr. cor. Halang st., Calamba Laguna	495357355	REGION IV-A (CALABARZON)	LAGUNA	CITY OF CALAMBA	14.1967	121.163
224	Luisita	Mc Arthur H-way, San Miguel Tarlac City	459851140	REGION III (Central Luzon)	TARLAC	CITY OF TARLAC (Capital)	15.4838	120.599
226	Legarda	2108 Legarda st., Quiapo Manila	4880739	NCR - National Capital Region	NCR, CITY OF MANILA, FIRST DISTRICT	QUIAPO	14.5991	120.991
227	Epza-Rosario	Gen. Trias Drive Rosario Cavite	464387109	REGION IV-A (CALABARZON)	CAVITE	ROSARIO	14.4075	120.859
228	Bocaue	McArthur Hi-way cor. Gov. F.Halili Ave. Bocaue	449201055	REGION III (Central Luzon)	BULACAN	BOCAUE	14.9518	120.929
229	Cityland10	Cityland10 Tower Valero cor dela Costa St.,Makati	8935601	NCR - National Capital Region	NCR, FOURTH DISTRICT	CITY OF MAKATI	14.5608	121.017
231	Mkti City Hall	1335 Angono cor. Hormige St. Poblacion, Makati	8976375	NCR - National Capital Region	NCR, FOURTH DISTRICT	CITY OF MAKATI	14.5705	121.026
232	CBC	115 G/F CBC, Paseo cor. Pasay Rd., Makati	8402903	NCR - National Capital Region	NCR, FOURTH DISTRICT	CITY OF MAKATI	14.5511	121.019
234	La Huerta	Quirino Ave. cor. Dandan St., La Huerta, Para?aque	8200296	NCR - National Capital Region	NCR, FOURTH DISTRICT	CITY OF PARA?AQUE	14.4999	120.991
236	UP Manila	Pedro Gil St nr. cor. Taft Ave., Malate, Manila	5214987	NCR - National Capital Region	NCR, CITY OF MANILA, FIRST DISTRICT	MALATE	14.5759	120.988
237	Orient	Ruby Road, Ortigas Center, Pasig City	6876941	NCR - National Capital Region	NCR, SECOND DISTRICT	CITY OF PASIG	14.5852	121.061
239	Park N' Ride	P. Burgos cor. Dr. Basa St., Ermita Manila	5217035	NCR - National Capital Region	NCR, CITY OF MANILA, FIRST DISTRICT	ERMITA	14.5933	120.98
240	Salcedo	Antel 2000 Bldg. Makati	8870161	NCR - National Capital Region	NCR, FOURTH DISTRICT	CITY OF MAKATI	14.5591	121.02
241	St. Luke's	E. Rodriguez cor. Victoria St., New Manila, Q.C.	4145914	NCR - National Capital Region	NCR, SECOND DISTRICT	QUEZON CITY	14.6216	121.024
242	Mabini- 10th Ave	Mabini cor 10th Ave, Caloocan City	2882085	NCR - National Capital Region	NCR, THIRD DISTRICT	CALOOCAN CITY	14.6503	120.973
243	Merville	Moreland Bldg.  cor West Service Rd	7760483	NCR - National Capital Region	NCR, FOURTH DISTRICT	PASAY CITY	14.5085	121.033
244	Guada 3	F. Yabut St. near cor EDSA Makati City	8820171	NCR - National Capital Region	NCR, FOURTH DISTRICT	CITY OF MAKATI	14.5651	121.046
245	QA-Araneta	Quezon Ave cor Araneta Avenue,Quezon City	7426241	NCR - National Capital Region	NCR, SECOND DISTRICT	QUEZON CITY	14.628	121.013
248	Pasig Mega	Mega Parking , Caruncho cor Market Avenue	2636398	NCR - National Capital Region	NCR, SECOND DISTRICT	CITY OF PASIG	14.5582	121.083
249	Binangonan	Quezon St., Libis, Binangonan, Rizal	2892370	REGION IV-A (CALABARZON)	RIZAL	BINANGONAN	14.4646	121.192
250	Aurora	Aurora Blvd. cor St. Mary,Cubao, Quezon City	9116230	NCR - National Capital Region	NCR, SECOND DISTRICT	QUEZON CITY	14.6226	121.052
251	Nobel	G/F,110 Nobel Plaza,Valero St., Makati City	8886458	NCR - National Capital Region	NCR, FOURTH DISTRICT	CITY OF MAKATI	14.5598	121.019
252	Talon	J. Aguilar Ave ,Talon,Las Pinas City	8735772	NCR - National Capital Region	NCR, FOURTH DISTRICT	CITY OF LAS PI?AS	14.4456	120.994
254	Salauag	Molino-Paliparan Road,Salawag Dasmarinas,Cavite	5061014	REGION IV-A (CALABARZON)	CAVITE	DASMARI?AS	14.3463	120.981
255	Pateros	Herrera St. cor Morcilla,Pateros	6413464	NCR - National Capital Region	NCR, FOURTH DISTRICT	PATEROS	14.5452	121.066
256	Marikina Bridge	E. Rodriguez cor JP Rizal St., Marikina	6828446	NCR - National Capital Region	NCR, SECOND DISTRICT	CITY OF MARIKINA	14.6357	121.095
257	Shoe Avenue	Shoe Avenue cor Capt Venciong, Sta. Elena	2175943	NCR - National Capital Region	NCR, SECOND DISTRICT	CITY OF MARIKINA	14.6337	121.098
258	Herrera	Y-L Bldg.,Herrera St.,Legaspi Village,Makati City	8302347	NCR - National Capital Region	NCR, FOURTH DISTRICT	CITY OF MAKATI	14.5555	121.016
259	Del Monte	Del Monte Ave. cor Tolentino St. Quezon City	3737072	NCR - National Capital Region	NCR, SECOND DISTRICT	QUEZON CITY	14.6404	121.016
261	Calamba Crossing	along Provincial Road , Calamba-Crossing, Laguna	495456749	REGION IV-A (CALABARZON)	LAGUNA	CITY OF CALAMBA	14.2059	121.155
262	PCU 2	Taft Ave. cor Pedro Gil,Manila	5220133	NCR - National Capital Region	NCR, CITY OF MANILA, FIRST DISTRICT	PACO	14.576	120.988
264	Trece 2	Gov. Drive cor. Indang, Tanza Road	464191467	REGION IV-A (CALABARZON)	CAVITE	TRECE MARTIRES CITY (Capital)	14.2815	120.868
268	Arayat 2	Arayat cor.Pinatubo St.,Cubao Quezon City	9850943	NCR - National Capital Region	NCR, SECOND DISTRICT	QUEZON CITY	14.6196	121.051
270	Binan 3	A. Bonifacio  Poblacion, Binan Laguna	494113260	REGION IV-A (CALABARZON)	LAGUNA	BI?AN	14.339	121.083
271	Shaw Starmall	Shaw Blvd. cor. EDSA Mandaluyong	7240376	NCR - National Capital Region	NCR, SECOND DISTRICT	CITY OF MANDALUYONG	14.5816	121.053
272	Betterliving 2	Dona Soledad ave. cor. Peru, Paranaque City	8229299	NCR - National Capital Region	NCR, FOURTH DISTRICT	CITY OF PARA?AQUE	14.4849	121.03
274	Fields Ave.	G/F HHH Commercial Bldg, Balibago,Angeles City	425000900	REGION III (Central Luzon)	PAMPANGA	ANGELES CITY	15.1666	120.584
275	FEU	913-919 Nicanor Reyes cor., Sampaloc,Manila	7348015	NCR - National Capital Region	NCR, CITY OF MANILA, FIRST DISTRICT	SAMPALOC	14.6046	120.988
276	Hansel	Aurora Blvd. cor.Imperial, Cubao, Quezon City	4392679	NCR - National Capital Region	NCR, SECOND DISTRICT	QUEZON CITY	14.6231	121.053
277	Session 3	128 Session Road Baguio City	744467449	CAR - Cordillera Administrative Region	BENGUET	BAGUIO CITY	16.4121	120.598
278	Sagittarius	Sagittarius Bldg. Salcedo Village Makati	8176432	NCR - National Capital Region	NCR, FOURTH DISTRICT	CITY OF MAKATI	14.5606	121.026
279	Marina	A. Mabini St., Malate Manila	5238407	NCR - National Capital Region	NCR, CITY OF MANILA, FIRST DISTRICT	MALATE	14.5736	120.983
281	T. Morato	Scout Castor cor. T. Morato Ave.	3762207	NCR - National Capital Region	NCR, SECOND DISTRICT	QUEZON CITY	14.6292	121.034
282	Gatchilian	Palanyag St. Para?aque City	8269949	NCR - National Capital Region	NCR, FOURTH DISTRICT	CITY OF PARA?AQUE	14.4756	121
283	RCBC	3rd Flr RCBC Podium, Ayala Cor Buendia , Makati	9946718	NCR - National Capital Region	NCR, FOURTH DISTRICT	CITY OF MAKATI	14.5608	121.016
284	Burgundy	One Burgundy Plaza , Katipunan Quezon City	9200964	NCR - National Capital Region	NCR, SECOND DISTRICT	QUEZON CITY	14.638	121.074
285	Emerald	Emerald Ave, Ortigas , Pasig City	6332852	NCR - National Capital Region	NCR, SECOND DISTRICT	CITY OF PASIG	14.5862	121.062
288	San Fernando 2	San Fernando Crossing, San Fernando, Pampanga	9618318	REGION III (Central Luzon)	PAMPANGA	CITY OF SAN FERNANDO (Capital)	15.041	120.683
289	Karuhatan 2	Mc Arthur Hi-way, Karuhatan, Valenzuela City	2931621	NCR - National Capital Region	NCR, THIRD DISTRICT	CITY OF VALENZUELA	14.69	120.974
292	University Of Batangas	University of Batangas, Batangas City	7222650	REGION IV-A (CALABARZON)	BATANGAS	BATANGAS CITY (Capital)	13.7637	121.059
293	Plaridel	Cagayan Valley Road, Banga 1st, Plaridel, Bulacan	7662778	REGION III (Central Luzon)	BULACAN	PLARIDEL	14.8828	120.867
294	Binan 4	National Highway Brgy Sto Nino, Binan Laguna	4110696	REGION IV-A (CALABARZON)	LAGUNA	BI?AN	14.3313	121.086
295	Kings Plaza	Kings Plaza,J.Luna cor. Padre Rada St.Tondo Manila	2414950	NCR - National Capital Region	NCR, CITY OF MANILA, FIRST DISTRICT	TONDO I / II	14.6067	120.97
296	Manansala	Makati City	8908731	NCR - National Capital Region	NCR, FOURTH DISTRICT	CITY OF MAKATI	14.5647	121.038
297	DFA	Arnaiz St., Pasay City	8331733	NCR - National Capital Region	NCR, FOURTH DISTRICT	PASAY CITY	14.5456	120.992
299	Indang	San Gregorio near cor Mabini St., Indang Cavite	4150245	REGION IV-A (CALABARZON)	CAVITE	INDANG	14.1973	120.877
300	Convergys	Salcedo St., Makati City	751210811	NCR - National Capital Region	NCR, FOURTH DISTRICT	CITY OF MAKATI	14.5594	121.016
301	Annapolis	Greenhills San Juan MM	724934400	NCR - National Capital Region	NCR, SECOND DISTRICT	CITY OF SAN JUAN	14.6039	121.052
302	Ayala FGU	Salcedo St., Salcedo Village, Makati City	8131372	NCR - National Capital Region	NCR, FOURTH DISTRICT	CITY OF MAKATI	14.5598	121.017
303	Asian Mansion	Dela Rosa St., Legaspi Village Makati City	8872506	NCR - National Capital Region	NCR, FOURTH DISTRICT	CITY OF MAKATI	14.5553	121.021
304	Starwood Hotel	Kisad Road near corner Marcos Highway Baguio City	44658311	CAR - Cordillera Administrative Region	BENGUET	BAGUIO CITY	16.4029	120.595
307	Madrigal Bldg.	Ayala Avenue, Makati City	8122235	NCR - National Capital Region	NCR, FOURTH DISTRICT	CITY OF MAKATI	14.558	121.02
308	LAS PI?AS CITY HALL	Pamplona, Las Pi?as City	8713479	NCR - National Capital Region	NCR, FOURTH DISTRICT	CITY OF LAS PI?AS	14.4489	120.983
309	AIC-Gale	Garnet Road, Ortigas Center, Pasig City	7064894	NCR - National Capital Region	NCR, SECOND DISTRICT	CITY OF PASIG	14.5896	121.061
310	MalayanPlaza	ADB Avenue, Ortigas Center, Pasig City	6384643	NCR - National Capital Region	NCR, SECOND DISTRICT	CITY OF PASIG	14.5864	121.06
311	PDCP	G/F PDCP Bank Center, Salcedo Village, Makati City	8934465	NCR - National Capital Region	NCR, FOURTH DISTRICT	CITY OF MAKATI	14.5598	121.02
312	US Embassy	Roxas Blvd., cor UN Avenue Ermita, Manila	4000551	NCR - National Capital Region	NCR, CITY OF MANILA, FIRST DISTRICT	ERMITA	14.5791	120.978
313	Northgate	Filinvest Corporate City, Muntinlupa	7285377	NCR - National Capital Region	NCR, FOURTH DISTRICT	CITY OF MUNTINLUPA	14.4257	121.04
315	Banaue	426 Banawe Ave. cor tirad paz St. SMH, Quezon City	7490401	NCR - National Capital Region	NCR, SECOND DISTRICT	QUEZON CITY	14.6285	121.004
316	Xavier Hills	G/F Xavier hills Condo.Granada St. N. Domingo, QC	7219740	NCR - National Capital Region	NCR, SECOND DISTRICT	CITY OF SAN JUAN	14.6115	121.036
317	Tanauan	Mabini St., Tanauan City, Batangas	7786391	REGION IV-A (CALABARZON)	BATANGAS	CITY OF TANAUAN	14.0846	121.15
318	Pearl Drive 1	Pearl Drive cor Lourdes St. Ortigas Pasig	6673989	NCR - National Capital Region	NCR, SECOND DISTRICT	CITY OF PASIG	14.5798	121.06
321	Buendia 2	Gil Puyat Ave. FB Harisson St.,  Pasay City	5222474	NCR - National Capital Region	NCR, FOURTH DISTRICT	PASAY CITY	14.5532	120.992
322	St. Scholastica	896 Vito Cruz cor. Dominga St., Malate Manila	5368495	NCR - National Capital Region	NCR, CITY OF MANILA, FIRST DISTRICT	MALATE	14.5629	120.996
323	Channel 7	Timog Avenue cor Samar St., Diliman Quezon City	9205650	NCR - National Capital Region	NCR, SECOND DISTRICT	QUEZON CITY	14.6332	121.043
324	Lucena	Quezon Avenue cor Gomez St., Lucena City, Quezon	6602438	REGION IV-A (CALABARZON)	QUEZON	LUCENA CITY (Capital)	13.9379	121.613
325	Sta. Cruz	P.Guevarra Ave.Brgy.3 Poblacion,Sta. Cruz Laguna	8084699	REGION IV-A (CALABARZON)	LAGUNA	SANTA CRUZ (Capital)	14.2797	121.415
326	Gapan	Bucana,Gapan Crossing Nueva Ecija City	4869482		NUEVA ECIJA	CITY OF GAPAN	15.3075	120.946
328	Cabanatuan 2	Mabini Quezon District Cabanatuan Nueva Ecija	4633815		NUEVA ECIJA	CABANATUAN CITY	15.4884	120.972
329	Dangwa	Don Quijote St. Sampaloc Manila	7499386	NCR - National Capital Region	NCR, CITY OF MANILA, FIRST DISTRICT	SAMPALOC	14.6151	120.99
330	Imperial Palace	Diliman Quezon City	9282281	NCR - National Capital Region	NCR, SECOND DISTRICT	QUEZON CITY	14.6354	121.036
331	Letran	Muralla St.Cor.Anda St. Intramuros Manila	5273335	NCR - National Capital Region	NCR, CITY OF MANILA, FIRST DISTRICT	INTRAMUROS	14.5935	120.977
332	Legarda 2	Jhocson St, Sampaloc, Manila	7346469	NCR - National Capital Region	NCR, CITY OF MANILA, FIRST DISTRICT	SAMPALOC	14.6007	120.996
333	Balibago Complex	Sta. Rosa Laguna	5343026	REGION IV-A (CALABARZON)	LAGUNA	CITY OF SANTA ROSA	14.2938	121.105
334	Owwa2	Solana St, Intramuros, Manila	5273654	NCR - National Capital Region	NCR, CITY OF MANILA, FIRST DISTRICT	INTRAMUROS	14.5893	120.978
335	Mamatid	Banlic, Cabuyao, Laguna	5310112	REGION IV-A (CALABARZON)	LAGUNA	CABUYAO	14.228	121.139
336	Padre Faura	Padre faura St, Ermita, Manila	5260090	NCR - National Capital Region	NCR, CITY OF MANILA, FIRST DISTRICT	ERMITA	14.5768	120.98
338	Pagsanjan	Calle Rizal, Poblacion Pagsanjan Laguna	8210832	REGION IV-A (CALABARZON)	LAGUNA	PAGSANJAN	14.2737	121.455
339	Nasugbu	JP Laurel St. cor. G. Alvarez st. Nasugbu Batangas	2162777	REGION IV-A (CALABARZON)	BATANGAS	NASUGBU	14.0724	120.632
340	Manuela	# 2 Real St., Do?a Manuela Ave., Las Pi?as City	8756816	NCR - National Capital Region	NCR, FOURTH DISTRICT	CITY OF LAS PI?AS	14.4531	120.976
341	Olivarez	San Dionisio, Para?aque City	8207175	NCR - National Capital Region	NCR, FOURTH DISTRICT	CITY OF PARA?AQUE	14.4788	120.998
342	R. Magsaysay	173 Edsa cor. Ermin Garcia st., Cubao QC	7270372	NCR - National Capital Region	NCR, SECOND DISTRICT	QUEZON CITY	14.6272	121.047
343	Fields 2	McArthur Highway, Balibago, Angeles City, Pampanga	6247529	REGION III (Central Luzon)	PAMPANGA	ANGELES CITY	15.1677	120.589
344	Molino 3	Zapote-Molino Road Brgy. Molino 3, Bacoor, Cavite	5172036	REGION IV-A (CALABARZON)	CAVITE	BACOOR	14.3885	120.977
345	Baliuag 2	Poblacion Plaza Naning Baliuag Bulacan	7662778	REGION III (Central Luzon)	BULACAN	BALIUAG	14.9546	120.901
346	Pedro Gil	1578 A. Mabini Cor. Pedro Gil St. Ermita, Manila	5224956	NCR - National Capital Region	NCR, CITY OF MANILA, FIRST DISTRICT	ERMITA	14.574	120.983
347	Bulihan	AFP Housing Old Bulihan Rd. Silang, Cavite	8902488	REGION IV-A (CALABARZON)	CAVITE	SILANG	14.2831	120.998
349	Teachers Bliss	Teachers Bliss Balong Bato Balintawak Quezon City	3670526	NCR - National Capital Region	NCR, SECOND DISTRICT	QUEZON CITY	14.6634	121.002
350	Pacific Center	San Miguel Avenue, Ortigas Center, Pasig city	6387098	NCR - National Capital Region	NCR, SECOND DISTRICT	CITY OF PASIG	14.5811	121.06
352	Baclaran 4	Roxas Blvd. corner Rivera St. Baclaran Paranaque	8522363	NCR - National Capital Region	NCR, FOURTH DISTRICT	CITY OF PARA?AQUE	14.529	120.994
353	Guagua	One Crown P. & Devt,Plaza Burgos, Guagua, Pampanga	9001043	REGION III (Central Luzon)	PAMPANGA	GUAGUA	14.9653	120.634
354	Gordon Ave	Gordon Ave. cor. 6th St. Asinan, Olongapo City	2239188	REGION III (Central Luzon)	ZAMBALES	OLONGAPO CITY	14.8269	120.284
355	Vito Cruz	Unit 102 & 103 Vito Cruz St. Malate, Manila	5671544	NCR - National Capital Region	NCR, CITY OF MANILA, FIRST DISTRICT	MALATE	14.5609	120.993
356	Gualberto	Zunio St. Gualberto Ave., Rosario, Batangas City	3210981	REGION IV-A (CALABARZON)	BATANGAS	ROSARIO	13.8453	121.206
357	Tanza 2	Tanza-Crossing, Daang Amaya, Tanza, Cavite	4371341	REGION IV-A (CALABARZON)	CAVITE	TANZA	14.3917	120.852
358	Dau	157 McArthur Hi-way, Dau, Mabalacat, Pampanga	9828071	REGION III (Central Luzon)	PAMPANGA	MABALACAT	15.1792	120.587
359	Olongapo Rotonda	1739 Rizal Ave. West Bajac, olongapo City	2233710	REGION III (Central Luzon)	ZAMBALES	OLONGAPO CITY	14.8387	120.284
360	Cabanatuan 3	Manson Bldg. Burgos Ave., Cabanatuan City	6002619		NUEVA ECIJA	CABANATUAN CITY	15.4878	120.963
361	Carmona	Purification St. Cabilang Baybay, Carmona, Cavite	4301291	REGION IV-A (CALABARZON)	CAVITE	CARMONA	14.3156	121.053
362	T. Mapua	1512 C.M.Recto cor. F.Torres Sta. Cruz, Manila	7358196	NCR - National Capital Region	NCR, CITY OF MANILA, FIRST DISTRICT	SANTA CRUZ	14.6037	120.981
363	Lopez Drive	Lopez Ave. cor Dr. A Santos Ave.  Paranaque City	5418904	NCR - National Capital Region	NCR, FOURTH DISTRICT	CITY OF PARA?AQUE	14.4684	121.012
364	Alimall	Gen. Romulo Ave., Araneta Center, Quezon City	9130046	NCR - National Capital Region	NCR, SECOND DISTRICT	QUEZON CITY	14.6205	121.057
365	McKinley Hill	G/F One Square, Upper McKinley Rd. Taguig City	8565085	NCR - National Capital Region	NCR, FOURTH DISTRICT	TAGUIG CITY	14.5354	121.047
366	SM Clark	Bayanihan Park, Balibago, Angeles City, Pampanga	4581036	REGION III (Central Luzon)	PAMPANGA	ANGELES CITY	15.1679	120.585
367	Riverbanks	ICT Bldg. 2 Riverbanks Center, Barangka, Markina	9484789	NCR - National Capital Region	NCR, SECOND DISTRICT	CITY OF MARIKINA	14.6294	121.082
368	Naguillan	Naguillan Rd. cor. Bokawkan Rd. Baguio City	4425668	CAR - Cordillera Administrative Region	BENGUET	BAGUIO CITY	16.4154	120.589
369	Balayan	112 Plaza Mabini St. Balayan, Batangas	9211044	REGION IV-A (CALABARZON)	BATANGAS	BALAYAN	13.9374	120.729
370	Urdaneta 2	Alexander St. Urdaneta City, Pangasinan	56825531	REGION I (Ilocos Region)	PANGASINAN	CITY OF URDANETA	15.9757	120.57
371	Dagupan 3	MH del Pilar corA.B. Fernandez Ave., Dagupan	5162025	REGION I (Ilocos Region)	PANGASINAN	DAGUPAN CITY	16.0457	120.343
372	Pascor Drive	Ninoy Aquino Avenue, Paranaque City	8533493	NCR - National Capital Region	NCR, FOURTH DISTRICT	CITY OF PARA?AQUE	14.5071	121.001
374	Old Sta. Mesa	4456 Valenzuela St. Sta. Mesa, Manila	7165025	NCR - National Capital Region	NCR, CITY OF MANILA, FIRST DISTRICT	SAMPALOC	14.6004	121.013
375	Villamor	12th St. Airman's Village Airbase Area, Pasay City	8547524	NCR - National Capital Region	NCR, FOURTH DISTRICT	PASAY CITY	14.5254	121.012
376	TSU	Brgy. Cut-Cut Romulo Ave. Tarlac City	9821781	REGION III (Central Luzon)	TARLAC	CITY OF TARLAC (Capital)	15.4854	120.587
377	Lucena 2	Lot #2771-B Along Quezon ave, Lucena City, Quezon	6607050	REGION IV-A (CALABARZON)	QUEZON	LUCENA CITY (Capital)	13.9356	121.613
378	Blumentritt 1	Rizal Ave. cor. Blumentritt Sta. Cruz, Manila	7328201	NCR - National Capital Region	NCR, CITY OF MANILA, FIRST DISTRICT	SANTA CRUZ	14.623	120.983
379	Olongapo 3	corner Anonas West Bajac-Bajac, Olongapo City	2239667	REGION III (Central Luzon)	ZAMBALES	OLONGAPO CITY	14.8395	120.284
380	Citadella	CAA Rd. corner Citadella Ave. Las Pi?as City	8286120	NCR - National Capital Region	NCR, FOURTH DISTRICT	CITY OF LAS PI?AS	14.4563	120.994
381	Don Galo	Quirino ave, Dimatimbangan St Don Galo Paranaque	8531055	NCR - National Capital Region	NCR, FOURTH DISTRICT	CITY OF PARA?AQUE	14.5045	120.994
383	Maya Arcade	G/F Maya Arcade 678 Edsa, Cubao, Quezon City	3760163	NCR - National Capital Region	NCR, SECOND DISTRICT	QUEZON CITY	14.6241	121.049
384	One E - Com	Harbour Drive cor Palm Coast Ave. Pasay City	7998124	NCR - National Capital Region	NCR, FOURTH DISTRICT	PASAY CITY	14.5385	120.982
386	Palico	Along Aguinaldo Hi-Way, Palico II, Imus, Cavite	4719577	REGION IV-A (CALABARZON)	CAVITE	IMUS	14.429	120.945
387	Binangonan 2	National Road Pantok, Binangonan, Rizal	6527003	REGION IV-A (CALABARZON)	RIZAL	BINANGONAN	14.4936	121.18
388	Bago Bantay	131 Ilocus Sur St. Bago Bantay, Quezon City	9264642	NCR - National Capital Region	NCR, SECOND DISTRICT	QUEZON CITY	14.6599	121.026
389	Lucban	Quezon Avenue Miramonte Subd. Lucban, Quezon	9111711	REGION IV-A (CALABARZON)	QUEZON	LUCBAN	14.1138	121.556
390	One McKinley	26th St.Fort Bonifacio, Global City Taguig	8565824	NCR - National Capital Region	NCR, FOURTH DISTRICT	TAGUIG CITY	14.5494	121.045
391	Manaoag	Felix St. cor. Garcia St. Manaoag, Pangasinan	5176229	REGION I (Ilocos Region)	PANGASINAN	MANAOAG	16.0445	120.487
392	SM San Fernando	SM City San Fernando, San Fernando Pampanga	9635561	REGION III (Central Luzon)	PAMPANGA	CITY OF SAN FERNANDO (Capital)	15.052	120.703
393	Tranco Ville	27 Rimando Rd., Topaz Bldg.,Brgy. Alfonso,  Baguio	4425808	CAR - Cordillera Administrative Region	BENGUET	BAGUIO CITY	16.4217	120.6
394	Maragondon	Poblacion 1-A Maragondon Cavite	4122501	REGION IV-A (CALABARZON)	CAVITE	MARAGONDON	14.2756	120.737
395	Imus 2	Bayan Luma, Imus Cavite	4723992	REGION IV-A (CALABARZON)	CAVITE	IMUS	14.4065	120.94
396	DLSU-Lipa	National Hway, Brgy. Paninsingin, Tambo, Lipa City	3121963	REGION IV-A (CALABARZON)	BATANGAS	LIPA CITY	13.9413	121.147
397	Sta. Rosa Estate	Sta. Rosa Estate, Sta. Rosa,  Laguna	5440446	REGION IV-A (CALABARZON)	LAGUNA	CITY OF SANTA ROSA	14.2493	121.063
398	Gordon Hospital	104 Rizal Avenue East Tapinac, Olongapo City	2231899	REGION III (Central Luzon)	ZAMBALES	OLONGAPO CITY	14.8278	120.28
400	FPIP	#158 Sta. Anastacia,  Sto. Tomas, Batangas	5440446	REGION IV-A (CALABARZON)	BATANGAS	SANTO TOMAS	14.1368	121.135
401	Philcom	8755 Paseo de Roxas, Makati City	8941194	NCR - National Capital Region	NCR, FOURTH DISTRICT	CITY OF MAKATI	14.5577	121.023
403	Tagaytay 2	Calamba Road, Tagaytay City	4385711	REGION IV-A (CALABARZON)	CAVITE	TAGAYTAY CITY	14.1252	120.992
404	Pacific Regency	G/F Pacific Regency Bldg, Malate Manila.	7388016	NCR - National Capital Region	NCR, CITY OF MANILA, FIRST DISTRICT	MALATE	14.5614	120.994
407	Abanao	Unit 2 Ong Bldg., Abanao St., Baguio City	4425898	CAR - Cordillera Administrative Region	BENGUET	BAGUIO CITY	16.4139	120.594
408	Park n' Shop	Bldg., 537 Rizal Hway, Subic Freeport, SBMA	2529994	REGION III (Central Luzon)	ZAMBALES	SUBIC	14.8247	120.283
409	San Pablo 3	Brgy. San Rafael, San Pablo Laguna	5626572	REGION IV-A (CALABARZON)	LAGUNA	SAN PABLO CITY	14.071	121.308
410	Sto. Ni?o Meycauayan	Sto. Ni?o Village, Meycauayan, Bulacan	4753375	REGION III (Central Luzon)	BULACAN	CITY OF MEYCAUAYAN	14.7651	120.989
411	Sta. Maria	Poblacion Sta. Maria, Bulacan	5466820	REGION III (Central Luzon)	BULACAN	BULACAN	14.8392	120.961
412	Don Bosco	Pasong Tamo cor Don Bosco St.,  Makati City	8193348	NCR - National Capital Region	NCR, FOURTH DISTRICT	CITY OF MAKATI	14.5481	121.014
413	BF Homes 2	Dr. A. Santos Avenue, BF Homes, Paranaque City	8267990	NCR - National Capital Region	ZAMBALES	IBA (Capital)	14.4586	121.032
414	Lemery 2	Ilustre Avenue, Lemery Batangas	4112023	REGION IV-A (CALABARZON)	BATANGAS	LEMERY	13.9388	120.916
415	Mendez Proper	Market Rd., Brgy., Poblacion Mendez, Cavite	8611736	REGION IV-A (CALABARZON)	CAVITE	TAGAYTAY CITY	14.1332	120.903
416	AUF	Mc Arthur Highway, Angeles, Pampanga	8883231	REGION III (Central Luzon)	PAMPANGA	ANGELES CITY	15.1462	120.595
417	Subic Proper	National Highway, Baraka, Subic, Zambales	0943	REGION III (Central Luzon)	ZAMBALES	SUBIC	14.8778	120.234
418	Multinational	Lot 2 Aquino Avenue, Para?aque City	8522797	NCR - National Capital Region	NCR, FOURTH DISTRICT	CITY OF PARA?AQUE	14.5	120.997
419	Gate-3 Taguig	AFPOVAI Phase 3, Fort Bonifacio, Taguig City	8892758	NCR - National Capital Region	NCR, FOURTH DISTRICT	TAGUIG CITY	14.4684	121.012
420	One San Miguel	Shaw Blvd.cor one san miguel ave. pasig city	6871736	NCR - National Capital Region	NCR, SECOND DISTRICT	CITY OF PASIG	14.5781	121.058
421	Aic Gold	Emerald Avenue, Ortigas Center, Pasig City	6375265	NCR - National Capital Region	NCR, SECOND DISTRICT	CITY OF PASIG	14.5888	121.062
422	La Union 1	Gov. Ortega St., San Fernando City, La Union	2427110	REGION I (Ilocos Region)	LA UNION	CITY OF SAN FERNANDO (Capital)	16.6169	120.315
423	Calasiao	cor San Miguel St., Calasiao Pangasinan	5176229	REGION I (Ilocos Region)	PANGASINAN	CALASIAO	16.0112	120.358
424	Capas	Mc Arthur Hiway, Poblacion Capas, Tarlac	4912971	REGION III (Central Luzon)	TARLAC	CITY OF TARLAC (Capital)	15.3327	120.591
425	Sunny Brooke	Blk.31 Lot 6, Bookeside Lane Gen Trias Cavite	6864280	REGION IV-A (CALABARZON)	CAVITE	CAVITE CITY	14.315	120.915
426	Sindalan	Mc Arthur Hiway, Sindalan San Fernando, Pampanga	4550992	REGION III (Central Luzon)	PAMPANGA	CITY OF SAN FERNANDO (Capital)	15.0779	120.641
427	Talavera	Marcos Poblacion, Talavera, Nueva Ecija	4113223		NUEVA ECIJA	CABANATUAN CITY	15.5891	120.92
428	Asia Pacific College Balanga	Brgy. Ibayo, Balanga City, Bataan	6120290	REGION III (Central Luzon)	BATAAN	CITY OF BALANGA (Capital)	14.6801	120.537
429	Mendez Crossing	Mendez Junction East, Tagaytay City	4134690	REGION IV-A (CALABARZON)	CAVITE	TAGAYTAY CITY	14.3353	120.919
430	Balanga Church	Lot 928-G-1 JP Rizal St., Balanga City	2375642	REGION III (Central Luzon)	BATAAN	CITY OF BALANGA (Capital)	14.6792	120.541
431	Iba, Zambales	Zone 1 Magsaysay Avenue, Iba Zambales	6041058	REGION III (Central Luzon)	ZAMBALES	IBA (Capital)	15.3281	119.975
432	Dakota Mansion	Gen. Malvar cor M. Adriatico St., Ermita, Manila	5261930	NCR - National Capital Region	NCR, CITY OF MANILA, FIRST DISTRICT	ERMITA	14.5726	120.985
433	Batangas 3	Rizal Ave. Poblacion 018, Batangas City	6864280	REGION IV-A (CALABARZON)	BATANGAS	BATANGAS CITY (Capital)	13.756	121.056
434	Malibay Plaza 2	Reance Bldg. Jose St. cor Malibay Ave. Pasay City	6512627	NCR - National Capital Region	NCR, FOURTH DISTRICT	PASAY CITY	14.5343	121.009
435	Angeles 2	Miranda St., Angeles City, Pampanga	624117	REGION III (Central Luzon)	PAMPANGA	ANGELES CITY	15.1383	120.588
436	Leveriza	Quirino Ave. cor Leveriza St., Malate, Manila	9064011	NCR - National Capital Region	NCR, CITY OF MANILA, FIRST DISTRICT	MALATE	14.5678	120.989
438	Balanga Plaza	Aguirre St., Poblacion Balanga, Bataan	6120294	REGION III (Central Luzon)	BATAAN	CITY OF BALANGA (Capital)	14.68	120.528
439	Porta Vaga	Fr. Carlu Street, Baguio City	4426728	CAR - Cordillera Administrative Region	BENGUET	BAGUIO CITY	16.4122	120.598
440	Total Corporate	Triangle Dr. Global City, Fort Bonifacio,taguig	7999102	NCR - National Capital Region	NCR, FOURTH DISTRICT	TAGUIG CITY	14.5606	121.056
441	Malolos Poblacion	M. Tenco, Poblacion, Malolos, Bulacan	7962374	REGION III (Central Luzon)	BULACAN	CITY OF MALOLOS (Capital)	14.8632	120.807
442	San Jose NE	Maharlika Highway,San Jose City, Nueva Ecija	6041058		NUEVA ECIJA	SAN JOSE CITY	15.792	120.99
443	Olongapo Cityhall	East Bajac-Bajac, Olongapo City	6110157	REGION III (Central Luzon)	ZAMBALES	OLONGAPO CITY	14.8421	120.288
444	Calamba 4 ( Carolina Center )	National Hiway cor Ipil-Ipil St., Calamba, Laguna	5451777	REGION IV-A (CALABARZON)	LAGUNA	CITY OF CALAMBA	14.1956	121.164
445	NE Pacific (ACC Properties)	Maharlika Hiway, Cabanatuan City	3290125		NUEVA ECIJA	CABANATUAN CITY	15.4587	120.95
446	Paniqui	National Highway, Brgy. Estacion, Paniqui, Tarlac	320013700	REGION III (Central Luzon)	TARLAC	CITY OF TARLAC (Capital)	15.6725	120.585
447	Kimston	Brgy. Pinagkaisahan. Makati City	8997264	NCR - National Capital Region	NCR, FOURTH DISTRICT	CITY OF MAKATI	14.5595	121.041
448	Pavillion Mall	Pavillion Mall, Bi?an, Laguna	4112709	REGION IV-A (CALABARZON)	LAGUNA	BI?AN	14.3279	121.088
449	Eastwood 2 (One Orchard)	E. Rodriguez Jr. Ave. Quezon City	6662762	NCR - National Capital Region	NCR, SECOND DISTRICT	QUEZON CITY	14.6108	121.079
450	PWU	Leon Guinto Street, Malate, Manila	5232189	NCR - National Capital Region	NCR, CITY OF MANILA, FIRST DISTRICT	MALATE	14.574	120.99
451	Civic Prime	filinvest corporate city,alabang, muntinlupa	6591353	NCR - National Capital Region	NCR, FOURTH DISTRICT	CITY OF MUNTINLUPA	14.4184	121.043
452	Pio del Pilar	Pasong Tamo cor dela rosa Street, Makati City	2170368	NCR - National Capital Region	NCR, FOURTH DISTRICT	CITY OF MAKATI	14.5583	121.013
453	Tayabas	Quezon Ave., cor Paterno St., Tayabas, Quezon	7932686	REGION IV-A (CALABARZON)	QUEZON	CITY OF TAYABAS	14.025	121.592
454	Cogeo	Marcos Hiway cor GSIS Antipolo Rizal	2170927	REGION IV-A (CALABARZON)	RIZAL	CITY OF ANTIPOLO	14.6211	121.169
455	Pearl Drive 2	Pearl Drive Ortigas Ctr, Pasig City	9145151	NCR - National Capital Region	NCR, SECOND DISTRICT	CITY OF PASIG	14.5822	121.061
456	Sariaya	Gen. Luna st National Hiway Sariaya Quezon	6512627	REGION IV-A (CALABARZON)	QUEZON	SARIAYA	13.9648	121.529
457	YP	YP Bldg. Dr. A. Santos Ave., Sucat, Paranaque City	7994079	NCR - National Capital Region	NCR, FOURTH DISTRICT	CITY OF PARA?AQUE	14.4657	121.017
458	San Marcelino	710 San Marcelino St., Ermita, Manila	4841124	NCR - National Capital Region	NCR, CITY OF MANILA, FIRST DISTRICT	ERMITA	14.5884	120.985
459	Palapala	Sampaloc 1, Palapala, Dasmarinas, Cavite	8522878	REGION IV-A (CALABARZON)	CAVITE	DASMARI?AS	14.3027	120.954
460	Telus	G/F Telus Bldg, Araneta Ctr, Cubao Quezon City	7091963	NCR - National Capital Region	NCR, SECOND DISTRICT	QUEZON CITY	14.6188	121.054
461	Lamuan	Filipinas Village Malanday, Marikina City	4906675	NCR - National Capital Region	NCR, SECOND DISTRICT	CITY OF MARIKINA	14.6489	121.098
462	Gen T. De Leon	Gen. T. De Leon st. Valenzuela City	2931621	NCR - National Capital Region	NCR, THIRD DISTRICT	CITY OF VALENZUELA	14.6865	120.995
463	San Carlos	San Carlos City, Pangasinan	2030015	REGION I (Ilocos Region)	PANGASINAN	SAN CARLOS CITY	15.9208	120.341
464	OsMak	Sampaguita cor. Escarlata, Pembo Makati City	7387193	NCR - National Capital Region	NCR, FOURTH DISTRICT	CITY OF MAKATI	14.5463	121.061
465	Taal Proper	Poblacion 3 Taal ProperTaal Batangas	4211742	REGION IV-A (CALABARZON)	BATANGAS	TAAL	14.0697	121.326
466	Sterling Centre	dela rosa st, legaspi villagge makati city	7526910	NCR - National Capital Region	NCR, FOURTH DISTRICT	CITY OF MAKATI	14.5578	121.017
468	SM City Lucena	maharlika Hiway National Rd., Lucena City	3736241	REGION IV-A (CALABARZON)	QUEZON	LUCENA CITY (Capital)	13.9407	121.626
469	Sta. Rosa N.E.	Maharlika Hiway Sta Rosa, N.E.	9401517		NUEVA ECIJA	CABANATUAN CITY	15.4235	120.938
470	Balanga Kapitolyo	Capitol Drive Balanga Bataan	0932	REGION III (Central Luzon)	BATAAN	CITY OF BALANGA (Capital)	14.6761	120.531
471	Valenzuela Exit	Maysan Road Paso de Blas, Valenzuela City	2170365	NCR - National Capital Region	NCR, THIRD DISTRICT	CITY OF VALENZUELA	14.7079	120.992
472	Nuvali	Nuvali Technopod, Sta. Rosa, Laguna	8522797	REGION IV-A (CALABARZON)	LAGUNA	CITY OF SANTA ROSA	14.2403	121.058
473	VG Cruz	Vicente Cruz Sampaloc Manila	5594598	NCR - National Capital Region	NCR, CITY OF MANILA, FIRST DISTRICT	SAMPALOC	14.6016	121.002
474	Wynsum	22 Ortigas Rd. Ortigas Ctr Pasig City	9105463	NCR - National Capital Region	NCR, SECOND DISTRICT	CITY OF PASIG	14.5857	121.061
476	Mayapa	Brgy. Paciano Rizal, Calamba City, Laguna	5025167	REGION IV-A (CALABARZON)	LAGUNA	CITY OF CALAMBA	14.2184	121.141
478	J. P. Rizal 2	Rizal Avenue, cor Pasong Tamo Avenue, Makati City	2175947	NCR - National Capital Region	NCR, FOURTH DISTRICT	CITY OF MAKATI	14.57	121.015
479	Caltex-NLEX	Chevron North Expressway, Malinta, Valz.	5146605	NCR - National Capital Region	NCR, THIRD DISTRICT	CITY OF VALENZUELA	14.7192	120.986
480	Philtranco	610 Apelo Cruz St., Pasay City	7998207	NCR - National Capital Region	NCR, FOURTH DISTRICT	PASAY CITY	14.5375	121.005
481	Net Plaza	Unit 14 E-Sqre Zn,Cres. Park West,Glob City Taguig	2173321	NCR - National Capital Region	NCR, FOURTH DISTRICT	TAGUIG CITY	14.5555	121.043
482	Villa Amparo	Imus Cavite	8755441	REGION IV-A (CALABARZON)	CAVITE	IMUS	14.4132	120.941
483	Fort Legend	Fort Bonifacio Global City	3457110	NCR - National Capital Region	NCR, FOURTH DISTRICT	TAGUIG CITY	14.5539	121.047
484	Batangas Port	Port Access Road Brgy Calicanto Batangas City	7222131	REGION IV-A (CALABARZON)	BATANGAS	BATANGAS CITY (Capital)	13.7548	121.042
485	Berthapil 4 (DMIA)	CSEZ Clark Field, Pampanga	0925	REGION III (Central Luzon)	PAMPANGA	ANGELES CITY	15.1812	120.545
486	Alabang Med (Aurora)	Alabang Zapote Road, Muntinlupa City	7381032	NCR - National Capital Region	NCR, FOURTH DISTRICT	CITY OF MUNTINLUPA	14.4275	121.024
487	Vista Verde (V-Square)	Vista Verde Ave., Pasig City	6816931	NCR - National Capital Region	NCR, SECOND DISTRICT	CITY OF PASIG	14.6041	121.106
489	Ecoplaza (Ecotech)	Pasong Tamo Extension, Makati City	6594292	NCR - National Capital Region	NCR, FOURTH DISTRICT	CITY OF MAKATI	14.5334	121.022
490	12th Ave. (Big Bobs)	Rizal Ave., Brgy Grace Park, Caloocan City	4750617	NCR - National Capital Region	NCR, THIRD DISTRICT	CALOOCAN CITY	14.6558	120.984
492	Times Plaza	UN ave. cor Taft Ave. Ermita Manila	2170367	NCR - National Capital Region	NCR, CITY OF MANILA, FIRST DISTRICT	ERMITA	14.5824	120.984
493	San Pablo 5	Brgy 6A, Mabini St., San Pablo City, Laguna	5627639	REGION IV-A (CALABARZON)	LAGUNA	SAN PABLO CITY	14.0744	121.325
494	Los Banos 2	Brgy. Malaking Bato, Los Banos, Laguna	5011172	REGION IV-A (CALABARZON)	LAGUNA	LOS BA?OS	14.1728	121.243
495	Sun Plaza	G/F Sun Plaza Shaw Blvd,cor Princeton st.Mand.City	2966542	NCR - National Capital Region	NCR, SECOND DISTRICT	CITY OF MANDALUYONG	14.5853	121.049
496	Tordesillas (Gervel Inc.)	Legaspi Village, Makati City	2170926	NCR - National Capital Region	NCR, FOURTH DISTRICT	CITY OF MAKATI	14.5605	121.021
497	Molito Complex	6793 Ayala Avenue, Makati City	4906618	NCR - National Capital Region	NCR, FOURTH DISTRICT	CITY OF MAKATI	14.426	121.027
498	SM Makati Cyberone	Harbor Drive, MOA Complex, Pasay City	2173320	NCR - National Capital Region	NCR, FOURTH DISTRICT	PASAY CITY	14.561	121.029
500	Binondo ( Burke Plaza )	Santo Cristo cor. San Fernando St. Binondo	5674748	NCR - National Capital Region	NCR, CITY OF MANILA, FIRST DISTRICT	BINONDO	14.5995	120.973
501	Sto. Domingo ( Navarro Property )	McArthur Hiway cor. Apo rd. Sto. Domingo Angeles	6253927	REGION III (Central Luzon)	PAMPANGA	ANGELES CITY	15.1244	120.598
502	Rockwell Business Center	Tower 2 Level 1 Unit No. N-02 Rockwell Business	5426562	NCR - National Capital Region	NCR, SECOND DISTRICT	CITY OF PASIG	14.5903	121.068
503	Centris 1 ( Cyperpod )	G/F Eton Cyperpod Centris EDSA Quezon City	4416798	NCR - National Capital Region	NCR, SECOND DISTRICT	QUEZON CITY	14.6428	121.039
504	Paragon Plaza	Paragon Plaza Condominium, Mandaluyong City	4701848	NCR - National Capital Region	NCR, SECOND DISTRICT	CITY OF MANDALUYONG	14.5763	121.051
505	Makati Ave. 2	Makati Ave. cor constellation St. Makati City	4820962	NCR - National Capital Region	NCR, FOURTH DISTRICT	CITY OF MAKATI	14.5638	121.029
506	Ascendas	Ascendas Tower 1 Unit GF-01 30th St. Taguig City	2179148	NCR - National Capital Region	NCR, FOURTH DISTRICT	TAGUIG CITY	14.5537	121.045
508	Heart Center	Philippine Heart Center, East Avenue, Quezon City	4345701	NCR - National Capital Region	NCR, SECOND DISTRICT	QUEZON CITY	14.6435	121.048
509	Woodlands	G/F Pioneer Woodlands EDSA Mandaluyong City	4807345	NCR - National Capital Region	NCR, SECOND DISTRICT	CITY OF MANDALUYONG	14.5736	121.048
510	LKG	11/F LKG Tower 6801-6803 Ayala Ave. Makati City	2175942	NCR - National Capital Region	NCR, FOURTH DISTRICT	CITY OF MAKATI	14.5594	121.017
511	PBCom	7/F PBCOM Twr Ayala Ave cor Rufino St.Makati City	3453408	NCR - National Capital Region	NCR, FOURTH DISTRICT	CITY OF MAKATI	14.5583	121.019
512	Philam	9/F Philam Life Bldg. Paseo de Roxas, Makati City		NCR - National Capital Region	NCR, FOURTH DISTRICT	CITY OF MAKATI	14.5574	121.022
513	One Solaris	One Solaris Bldg Dela Rosa St Makati City	2173319	NCR - National Capital Region	NCR, FOURTH DISTRICT	CITY OF MAKATI	14.5577	121.017
515	Castillejos	Castillejos	0922	REGION III (Central Luzon)	ZAMBALES	CASTILLEJOS	14.9329	120.201
516	NE Crossing	Sangitan East, Cabanatuan City	0932		NUEVA ECIJA	CABANATUAN CITY	15.4929	120.976
517	New Port	Star Cruises Center, Andrews Ave. Pasay City		NCR - National Capital Region	NCR, FOURTH DISTRICT	PASAY CITY	14.5191	121.017
518	SM Cyber Two	Makati City		NCR - National Capital Region	NCR, FOURTH DISTRICT	CITY OF MAKATI	14.5559	121.034
519	UPLB	University of the Philippines Los Ba?os, Laguna		REGION IV-A (CALABARZON)	LAGUNA	LOS BA?OS	14.1634	121.241
524	R. Papa	813 R.Papa & S.H. Loyola St. Sampaloc Manila		NCR - National Capital Region	NCR, CITY OF MANILA, FIRST DISTRICT	SAMPALOC	14.6034	120.988
525	Munoz 2	EDSA- Munoz Quezon City	2173323	NCR - National Capital Region	NCR, SECOND DISTRICT	QUEZON CITY	14.6577	121.022
527	Retiro 2	Sta. Mesa Heights, Quezon City	5160878	NCR - National Capital Region	NCR, SECOND DISTRICT	CITY OF PASIG	14.6302	120.996
528	BPO San Lazaro ( Vertex 1 )	Retail 4, Vortex 1 Bldg. Yuseco San Lazaro		NCR - National Capital Region	NCR, CITY OF MANILA, FIRST DISTRICT	TONDO I / II	14.6196	120.986
529	Port Area	Port Area Manila		NCR - National Capital Region	NCR, CITY OF MANILA, FIRST DISTRICT	PORT AREA	14.5847	120.974
530	Net Square	Net Square		NCR - National Capital Region	NCR, FOURTH DISTRICT	TAGUIG CITY	14.5511	121.046
531	La Trinidad	National Road, KM5 La Trinidad, Benguet	4221866	CAR - Cordillera Administrative Region	BENGUET	LA TRINIDAD (Capital)	16.4533	120.59
533	Dagupan 4	Perez Blvd. Rizal Ext., Dagupan City Pangasinan		REGION I (Ilocos Region)	PANGASINAN	DAGUPAN CITY	16.041	120.34
534	Eastwood 3	Eastwood	09190000	NCR - National Capital Region	NCR, SECOND DISTRICT	QUEZON CITY	14.6102	121.082
535	ATC	Alabang Town Center, Muntinlupa City		NCR - National Capital Region	NCR, FOURTH DISTRICT	CITY OF MUNTINLUPA	14.4239	121.031
536	San Andres	Mabini cor. San Andres St., Malate Manila		NCR - National Capital Region	NCR, CITY OF MANILA, FIRST DISTRICT	MALATE	14.5688	120.985
539	Tagaytay 3	Tagaytay		REGION IV-A (CALABARZON)	CAVITE	CAVITE CITY	14.1028	120.951
540	Grand Hampton	Fort Bonifacio, Global City taguig		NCR - National Capital Region	NCR, FOURTH DISTRICT	TAGUIG CITY	14.5545	121.044
541	San Miguel	San Miguel	6782944	REGION III (Central Luzon)	BULACAN	SAN MIGUEL	15.1484	120.979
542	Malugay ( G )	Chino Roces Ave. Makati City		NCR - National Capital Region	NCR, FOURTH DISTRICT	CITY OF MAKATI	14.5599	121.011
543	Connecticut	Edsa cor. Connecticut San Juan City	7272967	NCR - National Capital Region	NCR, SECOND DISTRICT	CITY OF SAN JUAN	14.6016	121.059
544	Quirino Ermita	Quirino Ave. cor. Mabini Ave. Malate Manila		NCR - National Capital Region	NCR, CITY OF MANILA, FIRST DISTRICT	MALATE	14.5656	120.987
545	Capas Junction ( Chevron )	Mc Arthur Hi-way, Capas Tarlac	0942	REGION III (Central Luzon)	TARLAC	CAPAS	15.342	120.594
546	Boni Malamig ( G )	708 Boni Ave. Brgy. Malamig Boni Mandaluyong City	5331843	NCR - National Capital Region	NCR, SECOND DISTRICT	CITY OF MANDALUYONG	14.5738	121.044
547	Tambo Coastal	Aguinaldo Highway Brgy. Tambo Para?aque City		NCR - National Capital Region	NCR, FOURTH DISTRICT	CITY OF PARA?AQUE	14.513	120.992
548	SLEX - NB	KM 22 SLEX San Antonio, San Pedro Laguna		REGION IV-A (CALABARZON)	LAGUNA	SAN PEDRO	14.3557	121.046
549	Filinvest	Alabang Zapote Road Filinvest Muntinlupa City		NCR - National Capital Region	NCR, FOURTH DISTRICT	CITY OF MUNTINLUPA	14.4236	121.036
551	Woodridge	G/F The Woodridge Blgd. upper Mckinley Rd. Taguig		NCR - National Capital Region	NCR, FOURTH DISTRICT	TAGUIG CITY	14.5352	121.052
552	Malolos Crossing	McArthur Hi-way cor. Mabini St. Malolos Crossing	7605705	REGION III (Central Luzon)	BULACAN	CITY OF MALOLOS (Capital)	14.8529	120.816
553	Tustine Alabang	Molino St. SS Hway, Alabang Muntinlupa City		NCR - National Capital Region	NCR, FOURTH DISTRICT	CITY OF MUNTINLUPA	14.4111	121.043
554	N. Garcia	N. Garcia		NCR - National Capital Region	NCR, FOURTH DISTRICT	CITY OF MAKATI	14.5623	121.023
555	C. Raymundo	Stella Maris	6422142	NCR - National Capital Region	NCR, SECOND DISTRICT	CITY OF PASIG	14.5759	121.085
556	Batanggas 4	Manuela Pastor Ave.H/W Pallocan West,Batangas City		REGION IV-A (CALABARZON)	BATANGAS	BATANGAS CITY (Capital)	13.7539	121.07
557	La Salle Med Dasma	Bo. Pasang Tala Dasma Cavite		REGION IV-A (CALABARZON)	CAVITE	DASMARI?AS	14.327	120.945
558	Welding Bldg.	Welding Bldg.		NCR - National Capital Region	NCR, FOURTH DISTRICT	CITY OF MAKATI	14.5622	121.025
559	Clark Hostel	Clark Freeport Zone, Pampanga	4991398	REGION III (Central Luzon)	PAMPANGA	ANGELES CITY	15.1811	120.528
560	San Fernando-NLEX	Brgy.San Felipe, San Fernando	9637803	REGION III (Central Luzon)	PAMPANGA	CITY OF SAN FERNANDO (Capital)	15.1294	120.643
561	Tarlac 2	Mc Arthur Hi-Way, Tarlac,Tarlac City	459823085	REGION III (Central Luzon)	TARLAC	CITY OF TARLAC (Capital)	15.4895	120.596
562	Daang Sarile, Cabanatuan	Daang Sarile, Cabanatuan City	6002608		NUEVA ECIJA	CABANATUAN CITY	15.5048	120.976
563	Tarlac Concepcion	Brgy San Nicola Poblacion Concepcion Tarlac	0922	REGION III (Central Luzon)	TARLAC	CONCEPCION	15.3238	120.631
564	Rosario 2	Rosario 2	2179153	NCR - National Capital Region	NCR, SECOND DISTRICT	CITY OF PASIG	14.5908	121.087
565	Mabalacat	Velasquez St., Mabalacat Proper, Pampanga	0943	REGION III (Central Luzon)	PAMPANGA	MABALACAT	15.2229	120.574
567	San Isidro	San Isidro		REGION IV-A (CALABARZON)	LAGUNA	CABUYAO	14.2378	121.134
568	Camiling	Camiling	4914065	REGION III (Central Luzon)	TARLAC	CAMILING	15.6866	120.412
569	Mabolo Bacoor	Mabolo Bacoor, Cavite		REGION IV-A (CALABARZON)	CAVITE	BACOOR	14.4375	120.905
570	Wilson	Wilson cor.,Ortigas San Juan, City	5700258	NCR - National Capital Region	NCR, SECOND DISTRICT	CITY OF SAN JUAN	14.6006	121.048
572	Herco Center	Herco		NCR - National Capital Region	NCR, FOURTH DISTRICT	CITY OF MAKATI	14.5519	121.017
574	Salawag 2	Paliparan Road Salawag Crossing Dasma Cavite		REGION IV-A (CALABARZON)	CAVITE	DASMARI?AS	14.3534	120.981
575	Halang Calamba	National Hiway Brgy.Halang Calamba Laguna		REGION IV-A (CALABARZON)	LAGUNA	CITY OF CALAMBA	14.1942	121.165
576	Boni EDSA	EDSA cor.,Boni Ave.Mandaluyong	5345365	NCR - National Capital Region	NCR, SECOND DISTRICT	CITY OF MANDALUYONG	14.5724	121.047
577	Sta Rosa	Tagaytay Road, Sta Rosa Laguna		REGION IV-A (CALABARZON)	LAGUNA	CITY OF SANTA ROSA	14.2498	121.064
578	Malanday	Brgy Malanday McArthur H-Way Valenzuela City	0922	NCR - National Capital Region	NCR, THIRD DISTRICT	CITY OF VALENZUELA	14.4416	121.024
579	Malinta 2	Danding Blg Cecilio J Santos St. Valenzuela City	0933	NCR - National Capital Region	NCR, THIRD DISTRICT	CITY OF VALENZUELA	14.6947	120.97
580	Silver City	Silver City	6503268	NCR - National Capital Region	NCR, SECOND DISTRICT	CITY OF PASIG	14.5839	121.075
581	DMG Center	DMG Center, Libertad cor., Calbayog St.,	5843467	NCR - National Capital Region	NCR, SECOND DISTRICT	CITY OF MANDALUYONG	14.5797	121.046
582	McKinley	Origas Ave. Mckinley, San Juan	7215740	NCR - National Capital Region	NCR, SECOND DISTRICT	CITY OF SAN JUAN	14.602	121.047
583	Harvard-EDSA	EDSA cor. Harvard St. Makati City		NCR - National Capital Region	NCR, FOURTH DISTRICT	CITY OF MAKATI	14.5589	121.04
585	TRAG	GL 10 The Residences, Arnaiz St., Makati Citry		NCR - National Capital Region	NCR, FOURTH DISTRICT	CITY OF MAKATI	14.5509	121.02
586	Muzon	Muzon	0922	REGION III (Central Luzon)	BULACAN	CITY OF SAN JOSE DEL MONTE	14.802	121.035
587	Marvin Plaza	Marvin PLaza		NCR - National Capital Region	NCR, FOURTH DISTRICT	CITY OF MAKATI	14.5554	121.014
589	Manila Executive Regency	Manila Exceutive Regency		NCR - National Capital Region	NCR, CITY OF MANILA, FIRST DISTRICT	MALATE	14.5786	120.982
590	Kingswood	Kingswood		NCR - National Capital Region	NCR, FOURTH DISTRICT	CITY OF MAKATI	14.5668	121.012
591	Malolos Tikay	McArthur Hi-way, Tikay Malolos Bulacan	8166760	REGION III (Central Luzon)	BULACAN	CITY OF MALOLOS (Capital)	14.8391	120.859
592	Sampol	sampol	0923	REGION III (Central Luzon)	BULACAN	CITY OF SAN JOSE DEL MONTE	14.8574	121.056
593	Farmers Market	Farmers Market	4394889	NCR - National Capital Region	NCR, SECOND DISTRICT	QUEZON CITY	14.6195	121.052
594	Victoria De Manila	G/F Victoria De Manila, Taft Avenue		NCR - National Capital Region	NCR, CITY OF MANILA, FIRST DISTRICT	MALATE	14.575	120.989
595	Tiaong	Tiaong		REGION IV-A (CALABARZON)	QUEZON	TIAONG	14.1309	121.436
596	San Pascual Batanggas	San Pascual Batanggas		REGION IV-A (CALABARZON)	BATANGAS	SAN PASCUAL	13.7822	121.031
598	Upper Session (Caltex)	Upper Session Road, cor., DPS Road, Baguio City	6199957	CAR - Cordillera Administrative Region	BENGUET	BAGUIO CITY	16.4053	120.602
599	Burnham	Chanum cor., Otek St., Burnham Park, Baguio City	4424741	CAR - Cordillera Administrative Region	BENGUET	BAGUIO CITY	16.4128	120.593
603	Fortune Square	Fortune Square	4552816	REGION III (Central Luzon)	PAMPANGA	CITY OF SAN FERNANDO (Capital)	15.1006	120.62
604	Dewey Ave.	Lot 2, Blk.18, Dewey Ave., Subic Bay Freeport Zone	2500944	REGION III (Central Luzon)	ZAMBALES	SUBIC	14.8189	120.281
605	Molino 5	Molino Road Brgy Molino III Bacoor Cavite		REGION IV-A (CALABARZON)	CAVITE	BACOOR	14.4423	120.972
606	Diamond Square	Diamond Square	0922	REGION III (Central Luzon)	PAMPANGA	ANGELES CITY	15.1648	120.591
607	The Enclave	The Enclave	6246322	REGION III (Central Luzon)	PAMPANGA	ANGELES CITY	15.1434	120.559
608	Zaragosa	Zaragosa	0932		NUEVA ECIJA	ZARAGOZA	15.4519	120.805
610	Olongapo Market	Olongapo Market	2230001	REGION III (Central Luzon)	ZAMBALES	OLONGAPO CITY	14.8396	120.961
611	San Marcelino	Brgy Central San Marcelino Zambales	0922	REGION III (Central Luzon)	ZAMBALES	SAN MARCELINO	14.9745	120.156
612	Imus Pag-Asa	National Road Cor Alapan St. Pagasa Imus Cavite		REGION IV-A (CALABARZON)	CAVITE	IMUS	14.4408	120.911
613	Baliuag Hi-way	Dona Remedios Hiway,Baliuag Bulacan	0923	REGION III (Central Luzon)	BULACAN	BALIUAG	14.9509	120.884
614	Bansalangin	Bansalanigin	3524617	NCR - National Capital Region	NCR, SECOND DISTRICT	QUEZON CITY	14.6558	121.024
615	San Pedro 5	San Pedro 5		REGION IV-A (CALABARZON)	LAGUNA	SAN PEDRO	14.362	121.057
616	Engineer's Hill	Engineer's Hill	4420742	CAR - Cordillera Administrative Region	BENGUET	BAGUIO CITY	16.4078	120.603
617	Grandview	Grandview	6280216	REGION III (Central Luzon)	PAMPANGA	ANGELES CITY	15.166	120.57
618	Angelo King	Along Arellano Ave., Malate, Manila		NCR - National Capital Region	NCR, CITY OF MANILA, FIRST DISTRICT	MALATE	14.5669	120.998
619	Buendia 4	317 Buendia Ave., Pasay City		NCR - National Capital Region	NCR, FOURTH DISTRICT	PASAY CITY	14.5545	120.998
620	FVR	Sapang Palay, San Jose  Del Monte City,	0933	REGION III (Central Luzon)	BULACAN	CITY OF SAN JOSE DEL MONTE	14.8527	121.062
621	Lifehomes	Lifehomes	0932	NCR - National Capital Region	NCR, SECOND DISTRICT	CITY OF PASIG	14.59	121.095
622	Makati Executive Tower 3	Mkti Exec. Tower Gil Puyat Ave Mkti City		NCR - National Capital Region	NCR, FOURTH DISTRICT	CITY OF MAKATI	14.558	121.008
623	Isabelle de Hidalgo	Unit 2&3 Isabelle de Hidalgo Bldg., Quiapo, Manila		NCR - National Capital Region	NCR, CITY OF MANILA, FIRST DISTRICT	QUIAPO	14.5983	120.986
624	Tagaytay 4	E.Aguinaldo H-Way Tagaytay City		REGION IV-A (CALABARZON)	CAVITE	TAGAYTAY CITY	14.1223	120.96
625	JP Laurel Malate	G/F JP Laurel Mem Bldg,Ped Gil St.Ermita,Manila		NCR - National Capital Region	NCR, CITY OF MANILA, FIRST DISTRICT	ERMITA	14.5734	120.982
626	Bertyaphil 5	Bertaphil 5	0932	REGION III (Central Luzon)	PAMPANGA	CITY OF SAN FERNANDO (Capital)	15.1999	120.542
628	Subic International Hotel	SIH Freeport Zone Subic Bay Olongapo City	0928	REGION III (Central Luzon)	ZAMBALES	SUBIC	14.8238	120.279
629	Pansol Calamba	Purok 1 Pansol Calamba City Laguna		REGION IV-A (CALABARZON)	LAGUNA	CITY OF CALAMBA	14.1817	121.177
630	Mayfair	Unit C Mayfair Tower, U.N Avenue, Ermita, Manila		NCR - National Capital Region	NCR, CITY OF MANILA, FIRST DISTRICT	ERMITA	14.5801	120.981
632	Sixto A.Ave.(Hampton Garden)	Dr Sixto Antonio Ave Maybunga Pasig City	0917	NCR - National Capital Region	NCR, SECOND DISTRICT	CITY OF PASIG	14.5795	121.083
635	Noveleta	Poblacion, Noveleta, Cavite City		REGION IV-A (CALABARZON)	CAVITE	CAVITE CITY	14.4282	120.881
636	Betterliving	Betterliving Subd., Don Bosco, Para?aque City		NCR - National Capital Region	NCR, FOURTH DISTRICT	CITY OF PARA?AQUE	14.4854	121.04
638	Carmelray	Carmelray Industrial Park 2, Calamba, Laguna		REGION IV-A (CALABARZON)	LAGUNA	CITY OF CALAMBA	14.1711	121.134
639	Lingayen	Lingayen	0922	REGION I (Ilocos Region)	PANGASINAN	LINGAYEN (Capital)	16.0215	120.233
640	Managaldan	National Road, Mangaldan Pangasinan	0922	REGION I (Ilocos Region)	PANGASINAN	MANGALDAN	16.0667	120.404
641	Espa?a Grand	Espa?a cor., Tolentino cor., Eloisa, Metro Manila		NCR - National Capital Region	NCR, CITY OF MANILA, FIRST DISTRICT	ERMITA	14.6065	120.989
643	EDSA Grand	EDSA cor Corregidor St Bago Bantay QC	5462701	NCR - National Capital Region	NCR, SECOND DISTRICT	QUEZON CITY	14.6573	121.024
644	Citrus	Brgy Minuyan San Jose Del Monte Bulacan	0922	REGION III (Central Luzon)	BULACAN	CITY OF SAN JOSE DEL MONTE	14.8122	121.046
645	MCU 3	EDSA Cor Serrano Ave Caloocan City	2637381	NCR - National Capital Region	NCR, THIRD DISTRICT	CALOOCAN CITY	14.6566	120.988
646	Pulilan (Castillo)	National Rd., Brgy., Pobalcion, Pulilan Bulacan	0923	REGION III (Central Luzon)	BULACAN	PULILAN	14.9003	120.85
648	Guada 4	, P. Burgos St., Guadalupe, Makati City		NCR - National Capital Region	NCR, FOURTH DISTRICT	CITY OF MAKATI	14.5654	121.047
649	St. Francis Tower	St. Francis Drive, Ortigas Center, Pasig City	2637388	NCR - National Capital Region	NCR, SECOND DISTRICT	CITY OF PASIG	14.5797	121.057
650	Sienna del Monte	Barangay Manresa, SFDM, Quezon City	4138095	NCR - National Capital Region	NCR, SECOND DISTRICT	QUEZON CITY	14.639	121.006
652	Lagro	Lagro Subd., Novaliches, Quezon City	4176874	NCR - National Capital Region	NCR, SECOND DISTRICT	QUEZON CITY	14.7346	121.068
653	Bacoor 2	141 Evangelista St., Daang Bukid, Bacoor, Cavite		REGION IV-A (CALABARZON)	CAVITE	BACOOR	14.4579	120.937
654	Paniqui 2 (Tiansing Property)	MH Del Pilar Paniqui Tarlac	0922	REGION III (Central Luzon)	TARLAC	PANIQUI	15.6684	120.577
656	Marquinton Cordova Tower	Marquinton Cordova Tower, Marikina City	2637394	NCR - National Capital Region	NCR, SECOND DISTRICT	CITY OF MARIKINA	14.6353	121.101
657	G. Tuazon 2	1850 G. Tuazon St., Sampaloc, Manila		NCR - National Capital Region	NCR, CITY OF MANILA, FIRST DISTRICT	SAMPALOC	14.6033	120.996
658	LRT2 Santolan	Lot2 c5-A, Santolan, Pasig City	0933	NCR - National Capital Region	NCR, SECOND DISTRICT	CITY OF PASIG	14.6222	121.087
659	Lung Center	Lung Center of the Phil Quezon Ave Quezon City	3764406	NCR - National Capital Region	NCR, SECOND DISTRICT	QUEZON CITY	14.6477	121.046
660	Scout Tobias	26 Timog Avenue Sct Tobias St Bgy Laging Handa QC	4820914	NCR - National Capital Region	NCR, SECOND DISTRICT	QUEZON CITY	14.6356	121.031
661	Tarlac Crossing	Poblacion 2, Tarlac City	0921	REGION III (Central Luzon)	TARLAC	CITY OF TARLAC (Capital)	15.4872	120.596
662	Lingayen 2	Artancho and Alvear Sts., Lingayen, Pangasinan	0922	REGION I (Ilocos Region)	PANGASINAN	LINGAYEN (Capital)	16.0301	120.228
663	Moriones (King Palace)	577 Moriones St.Tondo Manila		NCR - National Capital Region	NCR, CITY OF MANILA, FIRST DISTRICT	TONDO I / II	14.6101	120.968
664	Tejeron (Esway Residence)	Tejeron St Sta. Ana Manila		NCR - National Capital Region	NCR, CITY OF MANILA, FIRST DISTRICT	SANTA ANA	14.5764	121.011
665	A.Mabini (Guerrero Apartment)	A.Mabini St. Malate Manila		NCR - National Capital Region	NCR, CITY OF MANILA, FIRST DISTRICT	MALATE	14.5711	120.983
668	V. Santos	16 V. Santos, Sto. Ni?o, Marikina City	9415607	NCR - National Capital Region	NCR, SECOND DISTRICT	CITY OF MARIKINA	14.6406	121.101
669	City Oil	City Oil	0923	NCR - National Capital Region	NCR, SECOND DISTRICT	QUEZON CITY	14.7059	121.073
670	Mercedes (One Evergreen)	Evergreen 101, San Miguel Pasig City	0918	NCR - National Capital Region	NCR, SECOND DISTRICT	CITY OF PASIG	14.5665	121.062
672	Bauan 2	Manghinao Proper Bauan Batangas		REGION IV-A (CALABARZON)	BATANGAS	BAUAN	14.2727	121.455
673	Burke Quintin Paredes	Quintin Paredes Binondo Manila		NCR - National Capital Region	NCR, CITY OF MANILA, FIRST DISTRICT	BINONDO	14.5997	120.975
674	Zapanta	Santa Rita St. Makati City		NCR - National Capital Region	NCR, FOURTH DISTRICT	CITY OF MAKATI	14.5597	121.044
675	Patts	Dr. A. Santos Ave., San Isidro, Para?aque City		NCR - National Capital Region	NCR, FOURTH DISTRICT	CITY OF PARA?AQUE	14.4726	121.005
676	Rivercity (Lui Bldg.)	Carreon St. Sta. Ana Manila		NCR - National Capital Region	NCR, CITY OF MANILA, FIRST DISTRICT	SANTA ANA	14.5809	121.007
677	Tugatog	M..H del Pilar Rd Puresa St Tugatog Malabon City	4751074	NCR - National Capital Region	NCR, THIRD DISTRICT	CITY OF MALABON	14.6617	120.97
679	NAIA Terminal 3	4th Level Southwing Terminal 3 Pasay City		NCR - National Capital Region	NCR, FOURTH DISTRICT	PASAY CITY	14.5192	121.013
680	Taytay 3 (Muzon)	Manila East Rd  Brgy Muzon Taytay Rizal	2455467	REGION IV-A (CALABARZON)	RIZAL	TANAY	14.5437	121.144
681	DENR Bldg.	1515 Roxas Blvd Manila		NCR - National Capital Region	NCR, CITY OF MANILA, FIRST DISTRICT	ERMITA	14.5736	120.981
682	Lucao (Dagupan City)	National Road Dagupan City Pangasinan	0932	REGION I (Ilocos Region)	PANGASINAN	DAGUPAN CITY	16.0206	120.322
684	Escoda (Site Building)	Leon Guinto St corner Escoda St Manila		NCR - National Capital Region	NCR, CITY OF MANILA, FIRST DISTRICT	MALATE	14.574	120.99
685	Friendship Hi-Way (Moon Tae Park)	Friendship H-Way Brgy. Anunas Angeles City	4250105	REGION III (Central Luzon)	PAMPANGA	ANGELES CITY	15.1597	120.556
686	Lubao Pampanga	JP Rizal St Sta Cruz Lubao Pampanga	0922	REGION III (Central Luzon)	PAMPANGA	LUBAO	14.912	120.565
687	Taytay 4 (Taytay Doctors)	JP Rizal Avenue Taytay Rizal	0933	REGION IV-A (CALABARZON)	RIZAL	TANAY	14.5739	121.125
688	Cabanas Mall	McArthur H-Way Brgy. Longos City of Malolos	7687404	REGION III (Central Luzon)	BULACAN	CITY OF MALOLOS (Capital)	14.8748	120.797
689	Burnham Park (Clemente Commercial Center)	Shanum St. Burnham Park Baguio City	4245753	CAR - Cordillera Administrative Region	BENGUET	BAGUIO CITY	16.4111	120.592
690	Net Cube	Net Cube Center Bonifacio Global City Taguig		NCR - National Capital Region	NCR, FOURTH DISTRICT	TAGUIG CITY	14.5532	121.047
692	Attivo SF	Gapan Olongapo Road, San Fernando,Pampanga	9637724	REGION III (Central Luzon)	PAMPANGA	CITY OF SAN FERNANDO (Capital)	15.0445	120.688
696	Betterliving 4  (Caltex Dona)	Better Living Subdivision, Paranaque City		NCR - National Capital Region	NCR, FOURTH DISTRICT	CITY OF PARA?AQUE	14.4836	121.033
697	Bayambang	Royal Mall, Bayambang Pangasinan	0932	REGION I (Ilocos Region)	PANGASINAN	BAYAMBANG	15.8097	120.457
698	4th Avenue (Enriquez Property)	Grace Park, Caloocan City	4427251	NCR - National Capital Region	NCR, THIRD DISTRICT	CALOOCAN CITY	14.6434	120.98
699	Dagupan 5 (St. John Cathedral)	Dagupan City, Pangasinan	0933	REGION I (Ilocos Region)	PANGASINAN	DAGUPAN CITY	16.0417	120.334
701	Sanrise	2164 M. H. Del Pilar St., Malate, Manila		NCR - National Capital Region	NCR, CITY OF MANILA, FIRST DISTRICT	MALATE	14.5654	120.986
702	Naga I	Grand Imperial Plaza, Naga City		REGION V (Bicol Region)	CAMARINES SUR	NAGA CITY	13.623	123.184
704	Mindanao Ave	Mindanao Avenue Talipapa, Novaliches, Quezon City	3325216	NCR - National Capital Region	NCR, SECOND DISTRICT	QUEZON CITY	14.6904	121.028
705	CWC	Cadlan Municipality of Pili, Camarines Sur		REGION V (Bicol Region)	CAMARINES SUR	PILI (Capital)	13.5967	123.257
706	Aria	Real cor. Aria Sts., Las Pinas City		NCR - National Capital Region	NCR, FOURTH DISTRICT	CITY OF LAS PI?AS	14.4479	120.985
707	Concepcion Uno	Bayan Bayanan Avenue Bgy Concepcion Marikina City	5849615	NCR - National Capital Region	NCR, SECOND DISTRICT	CITY OF MARIKINA	14.6505	121.106
708	Northwalk Clark	1601 E. Rodriguez St., Cubao, Quezon City	0942	NCR - National Capital Region	NCR, SECOND DISTRICT	QUEZON CITY	15.1854	120.539
709	Caltex  Balibago	Caltex Balibago		REGION IV-A (CALABARZON)	LAGUNA	CITY OF SANTA ROSA	14.2889	121.095
710	Tejero	A. Soriano Highway, Tejero, Gen. Trias, Cavite		REGION IV-A (CALABARZON)	CAVITE	GENERAL TRIAS	14.3959	120.864
711	Tanauan 2	Tanauan 2		REGION IV-A (CALABARZON)	BATANGAS	CITY OF TANAUAN	14.0738	121.151
713	Suburbia	Suburbia	8610210	REGION III (Central Luzon)	PAMPANGA	CITY OF SAN FERNANDO (Capital)	15.0676	120.65
714	Systems Plus Angeles	Angeles City, Pampanga	0933	REGION III (Central Luzon)	PAMPANGA	ANGELES CITY	15.1587	120.592
715	One Archers Place	One Archers Place Taft Avenue, Malate, Manila		NCR - National Capital Region	NCR, CITY OF MANILA, FIRST DISTRICT	MALATE	14.5668	120.993
716	Tumana Marikina	Farmers Ave cor JP Rizal St., Concepcion, Marikina	0933	NCR - National Capital Region	NCR, SECOND DISTRICT	CITY OF MARIKINA	14.6532	121.103
717	Malasique	Malasique	0933	REGION I (Ilocos Region)	PANGASINAN	MALASIQUI	15.9789	120.376
718	Towerville	Brgy Minuyan Proper, San Jose, del Monte, Bulacan	9277596	REGION III (Central Luzon)	BULACAN	CITY OF SAN JOSE DEL MONTE	14.7898	121.074
719	Deparo1	Deparo Road cor T Samson Ave., North Caloocan City	3434482	NCR - National Capital Region	NCR, THIRD DISTRICT	CALOOCAN CITY	14.7401	121.026
721	San Mateo	103 Gen Luna Ave Gitnang Daan I San Mateo Rizal	6613873	REGION IV-A (CALABARZON)	RIZAL	SAN MATEO	14.7081	121.118
723	Angono 2	Manila East Road cor Guido Street Angono Rizal	0933	REGION IV-A (CALABARZON)	RIZAL	ANGONO	14.5259	121.158
725	Bagong Ilog	E Rodriguez Ave cor Sta Rosa St Bagong Ilog Pasig	2340204	NCR - National Capital Region	NCR, SECOND DISTRICT	CITY OF PASIG	14.5665	121.071
726	Paliparan	Mabuhay City, Paliparan, Dasmarinas, Cavite		REGION IV-A (CALABARZON)	CAVITE	DASMARI?AS	14.3198	120.995
727	Agoo	16 Mac Arthur Highway, Agoo, La Union	0932	REGION I (Ilocos Region)	LA UNION	AGOO	16.3248	120.367
728	University of Baguio (PSD Pharmacy)	FB building Assumption Road, Baguio City	4422003	CAR - Cordillera Administrative Region	BENGUET	BAGUIO CITY	16.4156	120.598
729	Anabu Kostal	Aguinaldo Highway, Anabu II, Imus, Cavite		REGION IV-A (CALABARZON)	CAVITE	IMUS	14.3759	120.939
730	Washington	Washington St. Nrgy. Pio del Pilar, Makati City		NCR - National Capital Region	NCR, FOURTH DISTRICT	CITY OF MAKATI	14.558	121.01
731	Southwoods Exit	Rosario Complex, San Vicente, San Pedro, Laguna		REGION IV-A (CALABARZON)	LAGUNA	SAN PEDRO	14.3352	121.048
732	Bauang Lu	Central East, Bauang, La Union	0923	REGION I (Ilocos Region)	LA UNION	BAUANG	16.5316	120.332
733	Forest Hill	Forest Hills Subdivision, Novaliches, Quezon City	9212757	NCR - National Capital Region	NCR, SECOND DISTRICT	QUEZON CITY	14.7162	121.041
734	Sumulong Highway	KM 23, Sumulong Highway, Brgy. Sta. Cruz, Antipolo	5846095	REGION IV-A (CALABARZON)	RIZAL	CITY OF ANTIPOLO	14.6192	121.151
735	West Rembo	Lot 1 Blk 76 Brgy West Rembo, Makati City		NCR - National Capital Region	NCR, FOURTH DISTRICT	CITY OF MAKATI	14.5632	121.059
738	Sumulong Highway 2	Sumulong Highway cor B. Solivan Ave, Antipolo City	4914982	REGION IV-A (CALABARZON)	RIZAL	CITY OF ANTIPOLO	14.6294	121.122
741	Earnshaw	J Figueras St cor Palmera St Sampaloc Manila		NCR - National Capital Region	NCR, CITY OF MANILA, FIRST DISTRICT	SAMPALOC	14.6021	120.993
743	Pulong Buhangin	Brgy Pulong Buhangin Sta Maria Bulacan	0932	REGION III (Central Luzon)	BULACAN	SANTA MARIA	14.8659	120.996
745	Antel Spa	7829 Makati Avenue corner Valdez St Makati City		NCR - National Capital Region	NCR, FOURTH DISTRICT	CITY OF MAKATI	14.5662	121.029
747	Lyceum Intramuros	465 Muralla corner Real St Intramuros Manila		NCR - National Capital Region	NCR, CITY OF MANILA, FIRST DISTRICT	INTRAMUROS	14.5922	120.978
736	F. Tanedo 1	F Tanedo St San Nicolas Tarlac City	0923	REGION III (Central Luzon)	TARLAC	CITY OF TARLAC (Capital)	15.4959	120.596
737	San Roque Tarlac	Brgy San Roque Tarlac Tarlac City	0925	REGION III (Central Luzon)	TARLAC	CITY OF TARLAC (Capital)	15.484	120.591
753	F Tanedo 2	F. Tanedo St Tarlac City	0925	REGION III (Central Luzon)	TARLAC	CITY OF TARLAC (Capital)	15.4875	120.589
694	Pili (Lucky 9)	Pili		REGION V (Bicol Region)	CAMARINES SUR	PILI (Capital)	13.5539	123.275
754	Mines View Plaza	Outlook Drive, Mines View Park, Baguio City	0943	CAR - Cordillera Administrative Region	BENGUET	BAGUIO CITY	16.4194	120.627
756	Paramount	135 West Ave. near Edsa, Quezon City	0998	NCR - National Capital Region	NCR, SECOND DISTRICT	QUEZON CITY	14.655	121.03
712	Cardinal	Medical Arts Bldg., Cardinal Santos Medical Ctr.	2637383	NCR - National Capital Region	NCR, SECOND DISTRICT	CITY OF SAN JUAN	14.5983	121.046
742	Gastambide	621-629 Dormitory Gastambide Sampaloc Manila		NCR - National Capital Region	NCR, CITY OF MANILA, FIRST DISTRICT	SAMPALOC	14.6021	120.991
744	F. Manalo	F Blumentritt cor F Manalo San Juan City	6552245	NCR - National Capital Region	NCR, SECOND DISTRICT	CITY OF SAN JUAN	14.5956	121.028
750	Mabini Soldado	A Mabini St cor Soldado St Ermita Manila		NCR - National Capital Region	NCR, CITY OF MANILA, FIRST DISTRICT	ERMITA	14.5745	120.983
752	Bustos	Brgy. Poblacion Bustos Bulacan	0925	REGION III (Central Luzon)	BULACAN	BUSTOS	14.9548	120.915
755	Sunshine Plaza	Sunshine Boulevard Plaza Quezon Ave, Quezon City	0998	NCR - National Capital Region	NCR, SECOND DISTRICT	CITY OF PASIG	14.6377	121.028
758	Dalandanan	Brgy Dalandanan Lazaro St McArthur Valenzuela City	0932	NCR - National Capital Region	NCR, THIRD DISTRICT	CITY OF VALENZUELA	14.7078	120.959
722	Alimall 2	Alimall 2	4418336	NCR - National Capital Region	NCR, SECOND DISTRICT	QUEZON CITY	14.619	121.057
767	Caleb	Address	0943	REGION I (Ilocos Region)	PANGASINAN	DAGUPAN CITY	16.0457	120.359
785	Yacht Club Total	Rizal Highway, Subic Bay Freeport Zone	2502258	REGION III (Central Luzon)	ZAMBALES	SUBIC	14.8242	120.288
759	CDC Clark	Aguinaldo Avenue Quirino St Clark Freeport Zone	4993071	REGION III (Central Luzon)	PAMPANGA	ANGELES CITY	15.1774	120.519
627	BSA Tower	No. 108 Legaspi Street Legaspi Village Makati City		NCR - National Capital Region	NCR, FOURTH DISTRICT	CITY OF MAKATI	14.5539	121.022
768	Navotas	M Naval St C4 Road Bagumbayan North Navotas City	0933	NCR - National Capital Region	NCR, THIRD DISTRICT	CALOOCAN CITY	14.6522	120.95
769	San Fernando 3	Gen Hizon Ave San Fernando Pampanga	0998	REGION III (Central Luzon)	PAMPANGA	CITY OF SAN FERNANDO (Capital)	15.0258	120.695
783	Divine Mercy	Marilao Muzon Road brgy Sta Rosa I Marilao Bulacan	0906	REGION III (Central Luzon)	BULACAN	MARILAO	14.779	120.974
789	CALTEX BSU	Caltex Gas Station Bgy Guinhawa Malolos Bulacan	7945962	REGION III (Central Luzon)	BULACAN	CITY OF MALOLOS (Capital)	14.8565	120.813
746	General Luna Baguio	General Luna St Baguio City Benguet	0923	CAR - Cordillera Administrative Region	BENGUET	BAGUIO CITY	16.4149	120.597
757	Naga 3	Panganiban Drive Brgy San Francisco Naga City		REGION V (Bicol Region)	CAMARINES SUR	NAGA CITY	13.6232	123.187
760	Comembo	Gf Unit C Comembo Commercial Complex Makati City	6978414	NCR - National Capital Region	NCR, FOURTH DISTRICT	CITY OF MAKATI	14.5479	121.063
773	Raon	Quezon Blvd cor Gonzalo Puyat Raon Quiapo Manila		NCR - National Capital Region	NCR, CITY OF MANILA, FIRST DISTRICT	QUIAPO	14.6007	120.985
777	P Guevarra	Santolan Road P Guevarra San Juan City	3859052	NCR - National Capital Region	NCR, SECOND DISTRICT	CITY OF SAN JUAN	14.6046	121.033
780	Pulang Lupa Dos	Naga Road Joseph Ave Pulang Lupa Dos Las Pinas		NCR - National Capital Region	NCR, FOURTH DISTRICT	CITY OF LAS PI?AS	14.4611	120.986
703	Mckinley Hill 1820	Upper mckinley road mckinley hills taguig city		NCR - National Capital Region	NCR, FOURTH DISTRICT	TAGUIG CITY	14.5349	121.049
764	CARLUYAN N. U.	MF Jhocson St Sampaloc Manila		NCR - National Capital Region	NCR, CITY OF MANILA, FIRST DISTRICT	SAMPALOC	14.6047	120.995
765	Zobel Roxas	1289 Zobel Roxas Ave Malate Manila		NCR - National Capital Region	NCR, CITY OF MANILA, FIRST DISTRICT	MALATE	14.5744	121.012
770	Manila City Hall	Godino Tower 350 A Villegas St Ermita Manila		NCR - National Capital Region	NCR, CITY OF MANILA, FIRST DISTRICT	ERMITA	14.5891	120.982
791	Imus 4	Buhay na Tubig Imus Cavite		REGION IV-A (CALABARZON)	CAVITE	IMUS	14.4068	120.957
795	BF Resort II	Bf Resort Village Las Pinas City		NCR - National Capital Region	NCR, FOURTH DISTRICT	CITY OF LAS PI?AS	14.4381	120.991
799	Dona Aurora (Milan Residences)	16 Plaridel St cor e Jacinto St Quezon City	2638471	NCR - National Capital Region	NCR, SECOND DISTRICT	QUEZON CITY	14.6148	121.01
801	Riverbanks 2	A Bonifacio St Brgy Barangka Marikina City	3859639	NCR - National Capital Region	NCR, SECOND DISTRICT	CITY OF MARIKINA	14.633	121.082
802	Market Avenue	Market Avenue cor MH Del Pilar Pasig City	6420341	NCR - National Capital Region	NCR, SECOND DISTRICT	CITY OF PASIG	14.5637	121.085
804	Amorsolo	146 Amorsolo St Legaspi Village Makati City		NCR - National Capital Region	NCR, FOURTH DISTRICT	CITY OF MAKATI	14.5524	121.015
806	Villaflor	National Road Poblacion Dagupan City Pangasinan	0922	REGION I (Ilocos Region)	PANGASINAN	DAGUPAN CITY	16.0371	120.347
808	Binmaley	Poblacion Binmaley Pangasinan	0923	REGION I (Ilocos Region)	PANGASINAN	BINMALEY	16.028	120.27
749	Two E-Com Center	Ocean Drive Mall of Asia Complex Pasay City		NCR - National Capital Region	NCR, FOURTH DISTRICT	PASAY CITY	14.5398	120.981
751	Emar Suites	409 Shaw Boulevard Mandaluyong City	6546489	NCR - National Capital Region	NCR, SECOND DISTRICT	CITY OF MANDALUYONG	14.5896	121.039
762	Supercenter	GF Supercenter Araneta Center Quezon City	0915	NCR - National Capital Region	NCR, SECOND DISTRICT	QUEZON CITY	14.6212	121.055
772	Tanay 2	Ft Catapusan St Plaza Aldea Tanay Rizal	6973426	REGION IV-A (CALABARZON)	RIZAL	TANAY	14.4947	121.29
775	Cabanatuan 4	Maharlika Highway Cabanatuan City	0998		NUEVA ECIJA	CABANATUAN CITY	15.4699	120.955
779	Sta Quiteria (Guilalas Property)	Sta Quiteria Caloocan City	2938577	NCR - National Capital Region	NCR, THIRD DISTRICT	CALOOCAN CITY	14.681	121.01
788	SLU Baguio	A Bonifacio Ave Baguio City	4422645	CAR - Cordillera Administrative Region	BENGUET	BAGUIO CITY	16.4195	120.597
778	Expo Cubao	Edsa Cubao Quezon City		NCR - National Capital Region	NCR, SECOND DISTRICT	QUEZON CITY	14.6184	121.052
781	Kingsville	94 Marcos Highway Mayamot Antipolo City	6546851	REGION IV-A (CALABARZON)	RIZAL	CITY OF ANTIPOLO	14.624	121.118
782	Pritil	1688 J Luna St Barangay 61 Zone 5 Tondo Manila		NCR - National Capital Region	NCR, CITY OF MANILA, FIRST DISTRICT	TONDO I / II	14.6162	120.97
784	Teresa	Magsaysay Ave Brgy San Gabriel Teresa Rizal	0943	REGION IV-A (CALABARZON)	RIZAL	TERESA	14.5583	121.211
828	Bay	Brgy Dila Bay Laguna		REGION IV-A (CALABARZON)	LAGUNA	BAY	14.1719	121.292
830	Total Cut-cut	Rizal St cor Friendship Hiway Angeles Pampanga	0932	REGION III (Central Luzon)	PAMPANGA	ANGELES CITY	15.1295	120.576
831	Marcos Highway	Marcos Highway Brgy Bakakeng Baguio City	0943	CAR - Cordillera Administrative Region	BENGUET	BAGUIO CITY	16.401	120.592
651	Total Balanga	National Road Calero St Brgy Ibayo Batangas Bataan	2370030	REGION III (Central Luzon)	BATAAN	CITY OF BALANGA (Capital)	14.6863	120.539
720	El Jardin de Presidente	Sgt Esguerra St Quezon City	0998	NCR - National Capital Region	NCR, SECOND DISTRICT	QUEZON CITY	14.6379	121.039
807	Urdaneta 3	Mcarthur Highway Urdaneta City Pangasinan	0922	REGION I (Ilocos Region)	PANGASINAN	CITY OF URDANETA	15.9723	120.571
823	Binalonan Crossing	McArthur Highway Binalonan Pangasinan						
838	Mariveles	Lakandula St P Burgos Poblacion Mariveles Bataan	9357538	REGION III (Central Luzon)	BATAAN	MARIVELES	14.4342	120.486
842	Naguillan Poblacion	Naguillan Road cor Rimando St Naguillan La Union	0920	REGION I (Ilocos Region)	LA UNION	NAGUILIAN	16.53	120.393
786	BF Homes 3	Bf Homes Aguirre Ave cor Elizalde Paranaque City		NCR - National Capital Region	NCR, FOURTH DISTRICT	CITY OF PARA?AQUE	14.45	121.018
794	Bagtikan	Bagtikan St San Antonio Village Makati city		NCR - National Capital Region	NCR, FOURTH DISTRICT	CITY OF MAKATI	14.5625	121.011
797	Old Balara	986 Tandang Sora Ave Brgy Old Balara Quezon City	0998	NCR - National Capital Region	NCR, SECOND DISTRICT	QUEZON CITY	14.664	121.069
805	East Avenue	NCPH Bldg Eastv Ave cor EDSA Pinyahan Quezon City	4359364	NCR - National Capital Region	NCR, SECOND DISTRICT	QUEZON CITY	14.6332	121.045
817	Malinta 3	6 Gov Santiago St Malinta Valenzuela City	0942	NCR - National Capital Region	NCR, THIRD DISTRICT	CITY OF VALENZUELA	14.6927	120.964
818	Lucban 2	Brgy Tinamnam Lucban Quezon		REGION IV-A (CALABARZON)	QUEZON	LUCBAN	14.1116	121.561
836	Torre Venecia	Timog Avenue cor Scout Santiago St Quezon City	3814091	NCR - National Capital Region	NCR, SECOND DISTRICT	QUEZON CITY	14.636	121.029
776	CBD Hotel (Naga Terminal)	Gf Cbd II Hotel Brgy Triangulo Naga City		REGION V (Bicol Region)	CAMARINES SUR	NAGA CITY	13.6193	123.189
790	Sta Cruz 2	Sitio Sampaguita Brgy Bubukal Sta Cruz Laguna		REGION IV-A (CALABARZON)	LAGUNA	SANTA CRUZ (Capital)	14.2618	121.404
813	Caltex Binan	A Mabini Road Bgry San Antonio Binan Laguna		REGION IV-A (CALABARZON)	LAGUNA	BI?AN	14.3349	121.088
814	Lian Batangas	JP Rizal St cor Kapitan Isko St Lian Batangas		REGION IV-A (CALABARZON)	BATANGAS	LIAN	14.0394	120.652
824	St Aquinas Sto Tomas	Sto Tomas Batangas		REGION IV-A (CALABARZON)	BATANGAS	SANTO TOMAS	14.1081	121.141
825	Lucena 3	Quezon Avenue Lucena City		REGION IV-A (CALABARZON)	QUEZON	LUCENA CITY (Capital)	13.947	121.586
827	Tagaytay City Market	Sta Rosa Road Brgy San Francisco Tagaytay City		REGION IV-A (CALABARZON)	CAVITE	TAGAYTAY CITY	14.1271	120.981
837	Tiaong Stopover	Tagpuan sa Villa Escudero Brgy Lalig Tiaong Quezon		REGION IV-A (CALABARZON)	QUEZON	TIAONG	13.9824	121.327
843	Mayapa 2	Mayapa Road Brgy Mayapa Calamba Laguna		REGION IV-A (CALABARZON)	LAGUNA	CITY OF CALAMBA	14.2115	121.124
810	Macabebe	Poblacion Macabebe Pampanga	0923	REGION III (Central Luzon)	PAMPANGA	MACABEBE	14.908	120.716
819	St Luke's 2	St Lukes Medical Bldg E Rodriguez Sr Quezon City	7230101	NCR - National Capital Region	NCR, SECOND DISTRICT	QUEZON CITY	14.6222	121.024
839	Total Tarlac	Mcarthur Highway Tarlac City Tarlac	0923	REGION III (Central Luzon)	TARLAC	CITY OF TARLAC (Capital)	15.458	120.6
847	Alaminos	Across Nepo Mart Alaminos City Pangasinan	0922	REGION I (Ilocos Region)	PANGASINAN	CITY OF ALAMINOS	16.1548	119.98
849	Caltex San Simon	McArthur Hiway San Simon Exit Pampanga		REGION III (Central Luzon)	PAMPANGA	ANGELES CITY	14.9927	120.774
678	Xevera	Brgy Tabun Mac Arthur Highway Mabalacat Pampanga	0932	REGION III (Central Luzon)	PAMPANGA	MABALACAT	15.2444	120.564
724	The Manila Residences	GF The Manila Residences Taft Ave Malate Manila		NCR - National Capital Region	NCR, CITY OF MANILA, FIRST DISTRICT	MALATE	14.5665	120.994
748	Camp John Hay	Space 4 Baguio Technohub Camp John Hay Baguio	0923	CAR - Cordillera Administrative Region	BENGUET	BAGUIO CITY	16.3988	120.609
811	Tanauan 3	Pres Laurel Highway cor Molave St Tanauan Batangas		REGION IV-A (CALABARZON)	BATANGAS	CITY OF TANAUAN	14.1656	121.153
822	Palico 2	Palico Imus Cavite		REGION IV-A (CALABARZON)	CAVITE	IMUS	14.4253	120.944
796	San Fernando 4	Abad Santos St Poblacion San Fernando Pampanga	0948	REGION III (Central Luzon)	PAMPANGA	CITY OF SAN FERNANDO (Capital)	15.0466	120.692
826	Phoenix	Phoenix Lucena Maharlika Highway Lucena City		REGION IV-A (CALABARZON)	QUEZON	LUCENA CITY (Capital)	13.9593	121.652
841	United Paranaque	Tindalo cor E Services Road Paranaque City		NCR - National Capital Region	NCR, FOURTH DISTRICT	CITY OF PARA?AQUE	14.4738	121.036
874	KIDNEY CENTER	East Ave Quezon City	0932	NCR - National Capital Region	NCR, SECOND DISTRICT	QUEZON CITY	14.6472	121.048
889	Eastern Petroleum	Argonaut Highway cor Rizal Ave SBMA Zambales	2500919	REGION III (Central Luzon)	ZAMBALES	SUBIC	14.8227	120.298
812	Paciano	Paiano Hoghway Brgy Paciano Rizal Calamba Laguna		REGION IV-A (CALABARZON)	LAGUNA	CITY OF CALAMBA	14.2132	121.136
815	Pila Highway	Brgy Labuin Pila Laguna		REGION IV-A (CALABARZON)	LAGUNA	PILA	14.2549	121.395
829	Areza	Natioanl Highway Brgy Canlalay		REGION IV-A (CALABARZON)	LAGUNA	BI?AN	14.3373	121.075
835	Banaue 2	Banawe St Brgy Josefa Quezon City	8613264	NCR - National Capital Region	NCR, SECOND DISTRICT	QUEZON CITY	14.6238	121.008
852	Bucandala	Patindig Araw Alapan Road Bucandala Imus Cavite		REGION IV-A (CALABARZON)	CAVITE	IMUS	14.406	120.925
855	UERM	R Magsaysay Blvd Ext Quezon City	5221704	NCR - National Capital Region	NCR, SECOND DISTRICT	QUEZON CITY	14.608	121.021
866	Gumaca	Andres Bonifacio St cor JP Rizal St Gumaca Quezon		REGION IV-A (CALABARZON)	QUEZON	GUMACA	14.1333	121.432
872	Total San Pablo	Maharlika Highway San Pablo City Laguna		REGION IV-A (CALABARZON)	LAGUNA	SAN PABLO CITY	14.071	121.303
856	Guimba	Salvador St Bargain St Guimba Nueva Ecija			NUEVA ECIJA	GUIMBA	15.6594	120.769
851	Lopez	Maharlika highway cor San Isidro St Lopez Quezon		REGION IV-A (CALABARZON)	QUEZON	LOPEZ	14.0743	121.324
876	Magalang	Sta Cruz Magalang Pampanga	0933	REGION III (Central Luzon)	PAMPANGA	MAGALANG	15.2136	120.659
894	Macabling	Brgy Macabling Sta Rosa Laguna		REGION IV-A (CALABARZON)	LAGUNA	CITY OF SANTA ROSA	14.2991	121.099
846	Tanza 3	Filinvest West Brgy Paradahan Tanza Cavite		REGION IV-A (CALABARZON)	CAVITE	TANZA	14.3251	120.86
857	Dita (Margarita)	Brgy Dita Sta Rosa City Laguna		REGION IV-A (CALABARZON)	LAGUNA	CITY OF SANTA ROSA	14.281	121.123
882	Atimonan	Rizal St cor Quezon St Atimonan Quezon		REGION IV-A (CALABARZON)	QUEZON	ATIMONAN	14.0012	121.92
761	Naga 2	2 Ateneo Ave cor Bagumbayan St Naga City		REGION V (Bicol Region)	CAMARINES SUR	NAGA CITY	13.6295	123.187
821	City Place Binondo	City Place BInondo Sta Elene St Binondo Manila		NCR - National Capital Region	NCR, CITY OF MANILA, FIRST DISTRICT	BINONDO	14.6048	120.972
887	San Antonio	San Antonio San Narciso Road Poblacion Zambales	0923	REGION III (Central Luzon)	ZAMBALES	SAN NARCISO	14.9483	120.089
792	Sta Monica	Sta Monica LM Guerrero St Ermita Manila		NCR - National Capital Region	NCR, CITY OF MANILA, FIRST DISTRICT	ERMITA	14.5753	120.981
859	Landayan	Brgy Landayan San Pedro Laguna		REGION IV-A (CALABARZON)	LAGUNA	SAN PEDRO	14.354	121.066
853	Tayug	Poblacion TAyug Pangasinan		REGION I (Ilocos Region)	PANGASINAN	TAYUG	16.0233	120.748
763	Manhattan	Gf Manhattan Parkway Araneta Center Quezon City	0932	NCR - National Capital Region	NCR, SECOND DISTRICT	QUEZON CITY	14.6234	121.055
860	Asuncion	Asuncion St cor Zaragosa St Divisoria Tondo Manila		NCR - National Capital Region	NCR, CITY OF MANILA, FIRST DISTRICT	TONDO I / II	14.6037	120.966
896	Katipunan	Esteban Abada St cor Rosa Alvero St Loyola Heigths	4267186	NCR - National Capital Region	NCR, SECOND DISTRICT	CITY OF PASIG	14.6334	121.073
898	San Carlos 2	33 Rizal St San Carlos City Pangasinan	0932	REGION I (Ilocos Region)	PANGASINAN	SAN CARLOS CITY	15.9296	120.351
865	Perez	Inong Bldg Hugo Perez Drive Trece Martirez Cavite		REGION IV-A (CALABARZON)	CAVITE	TRECE MARTIRES CITY (Capital)	14.2822	120.89
895	Cuenca	Poblacion 1 National Highway Cuenca Batangas		REGION IV-A (CALABARZON)	BATANGAS	CUENCA	13.8982	121.051
845	Plaridel Waltermart	Banga 1 Plaridel Bulacan	0998	REGION III (Central Luzon)	BULACAN	PLARIDEL	14.8808	120.867
877	Tune Hotel	1740 A Mabini St Malate Manila		NCR - National Capital Region	NCR, CITY OF MANILA, FIRST DISTRICT	MALATE	14.571	120.984
885	San Fabian	Quezon Highway San Fabian Pangasinan	0925	REGION I (Ilocos Region)	PANGASINAN	SAN FABIAN	16.1137	120.398
892	Raffles	Emerald Avenue Ortigas Centre Ortigas Pasig City	3798643	NCR - National Capital Region	NCR, SECOND DISTRICT	CITY OF PASIG	14.586	121.062
893	Famy	Brgy Calumpang Famy Laguna		REGION IV-A (CALABARZON)	LAGUNA	FAMY	14.4356	121.449
908	Dinalupihan	3 San Ramon Highway Dinalupihan Bataan	4811820	REGION III (Central Luzon)	BATAAN	DINALUPIHAN	14.8679	120.461
903	OYG	B MEndoza St San Fernando Pampanga	0932	REGION III (Central Luzon)	PAMPANGA	CITY OF SAN FERNANDO (Capital)	15.0317	120.689
864	Legislative Bldg	Rizal St cor Hilario St Tarlac City	0920	REGION III (Central Luzon)	TARLAC	CITY OF TARLAC (Capital)	15.4866	120.589
868	Armstrong Avenue	Armstrong Ave cor E Rodriguez Moonwalk Paranaque		NCR - National Capital Region	NCR, FOURTH DISTRICT	CITY OF PARA?AQUE	14.4974	121.013
869	Finman	117 Tordesillas St Salcedo Village Makati City		NCR - National Capital Region	NCR, FOURTH DISTRICT	CITY OF MAKATI	14.5609	121.024
884	Galicia	Galicia st cor Espa?a Sampaloc Manila		NCR - National Capital Region	NCR, CITY OF MANILA, FIRST DISTRICT	SAMPALOC	14.6071	120.99
886	Libmanan	Poblacion St cor Bigaon St Libamanan Camarines Sur		REGION V (Bicol Region)	CAMARINES SUR	LIBMANAN	13.6937	123.06
888	La Union 2 (DMMMSU)	McArthur Hiway Sevilla San Fernando City La Union	0923	REGION I (Ilocos Region)	LA UNION	CITY OF SAN FERNANDO (Capital)	16.6066	120.318
890	Lima Tech (Malvar)	Santiago JP Laurel Highway Malvar Batangas		REGION IV-A (CALABARZON)	BATANGAS	MALVAR	14.0085	121.166
897	Lucena 4	ML Tagarao St Brgy Iyam Lucena City		REGION IV-A (CALABARZON)	QUEZON	LUCENA CITY (Capital)	13.9344	121.604
912	Calamba Science Park	Science Park II National Road Real Calamba Laguna		REGION IV-A (CALABARZON)	LAGUNA	CITY OF CALAMBA	14.1955	121.144
875	Menzy Land	Subd Brgy Mojon Malolos Bulacan	8960237	REGION III (Central Luzon)	BULACAN	CITY OF MALOLOS (Capital)	14.861	120.817
902	Sitio Gitna	Gen Luis St P Dela Cruz St Brgy Kaybiga Caloocan	0998	NCR - National Capital Region	NCR, THIRD DISTRICT	CALOOCAN CITY	14.7199	121.015
878	Shell Diversion	Roxas Ave Triangulo Naga City Camarines Sur		REGION V (Bicol Region)	CAMARINES SUR	NAGA CITY	13.6154	123.192
809	Paliparan 2	Brgy Paliparan 3 Dasmarinas City		REGION IV-A (CALABARZON)	CAVITE	DASMARI?AS	14.321	120.985
1015	Alpha land Makati Mall	7232 Ayala Ave Exit Malugay St Makati City		NCR - National Capital Region	NCR, FOURTH DISTRICT	CITY OF MAKATI	14.5624	121.016
931	Gagfa IT	G/F Gagfa Tower, F. Cabahug St. Cebu City		REGION VII (Central Visayas)	CEBU	CEBU CITY	10.3255	123.92
766	K Zone	EDSA Brgy Pinyahan Quezon City	7364010	NCR - National Capital Region	NCR, SECOND DISTRICT	QUEZON CITY	14.577	121.051
883	Madapdap	San Fernando Ave Madapdap Pampanga	0942	REGION III (Central Luzon)	PAMPANGA	CITY OF SAN FERNANDO (Capital)	15.2188	120.611
863	Tanauan 4	A Mabini Avenue, Tanauan City Batangas		REGION IV-A (CALABARZON)	BATANGAS	CITY OF TANAUAN	14.0837	121.146
899	Sotto	Unit 117 Sotto Yuvienco Bldg cor Gen Luna Ermita		NCR - National Capital Region	NCR, CITY OF MANILA, FIRST DISTRICT	ERMITA	14.5818	120.986
901	Gen Trias Poblacion	Sampalukan St Poblacion Gen Trias Cavite		REGION IV-A (CALABARZON)	CAVITE	GENERAL TRIAS	14.3864	120.88
914	Nabua	San Roque Poblacion, Nabua Camarines Sur		REGION V (Bicol Region)	CAMARINES SUR	NABUA	13.4067	123.373
942	Munoz Nueva Ecija	Delos Santos St Science City Munoz Nueva Ecija	0923		NUEVA ECIJA	SCIENCE CITY OF MU?OZ	15.712	120.904
925	Tuy	Poblacion, Tuy, Batangas		REGION IV-A (CALABARZON)	BATANGAS	TUY	14.0207	120.729
932	Imez 2	Pueblo Verde in Mactan Economic Zone II Basak Lapu		REGION VII (Central Visayas)	CEBU	LAPU-LAPU CITY	10.3013	123.963
933	UCLM	Myfc Building A C Cortez Avenue Mandaue City		REGION VII (Central Visayas)	CEBU	MANDAUE CITY	10.3257	123.952
934	JY Square Mall	Salinas Drive cor Gorordo Avenue Lahug Cebu City		REGION VII (Central Visayas)	CEBU	CEBU CITY	10.3301	123.899
935	Tune Hotel	36 Archbishop Reyes Avenue Cebu City		REGION VII (Central Visayas)	CEBU	CEBU CITY	10.3177	123.902
946	Cebu Capitol	Don Gil Garcia St cor Escario St Capitol Cebu City		REGION VII (Central Visayas)	CEBU	CEBU CITY	10.3159	123.89
947	CDU	Carvelo Canteen North Reclamation Area Mandaue		REGION VII (Central Visayas)	CEBU	MANDAUE CITY	10.3209	123.934
948	Escario	N Escario Brgy Kamputhaw Cebu City		REGION VII (Central Visayas)	CEBU	CEBU CITY	10.3174	123.894
950	Bigfoot	Bigfoot Center F Ramos St Cogon Central Cebu City		REGION VII (Central Visayas)	CEBU	CEBU CITY	10.3065	123.897
834	Remington hotel	Ground Floor Shop 2, Remington Hotel, Newport City		NCR - National Capital Region	NCR, FOURTH DISTRICT	PASAY CITY	14.5179	121.019
850	Airport Road 2	Roxas Boulevard Airport Road Baclaran Para?aque		NCR - National Capital Region	NCR, FOURTH DISTRICT	CITY OF PARA?AQUE	14.5271	120.994
900	Catanauan	Poblacion 10 Catanauan Quezon		REGION IV-A (CALABARZON)	QUEZON	CATANAUAN	13.5948	122.323
909	Plaza 66	Plaza 66 New Port City		NCR - National Capital Region	NCR, FOURTH DISTRICT	PASAY CITY	14.5245	121.013
913	Pagsawitan	Brgy Pagsawitan Sta Cruz Laguna		REGION IV-A (CALABARZON)	LAGUNA	SANTA CRUZ (Capital)	14.2683	121.427
915	Alaminos Laguna	Del Pilar st Alaminos Laguna		REGION IV-A (CALABARZON)	LAGUNA	ALAMINOS	14.0654	121.247
920	Malvar Poblacion	Poblacion Malvar Batangas		REGION IV-A (CALABARZON)	BATANGAS	MALVAR	14.045	121.158
